{
  "_note": "Static fallback data — used when live ArcGIS server is unavailable. Data sourced from public records.",
  "type": "FeatureCollection",
  "features": [
    {"type": "Feature", "geometry": {"type": "Point", "coordinates": [28.45, -14.90]}, "properties": {"Province": "Central", "District": "Kabwe", "Block": "Kabwe Block", "Camp": "Kabwe Central Camp", "Area_Sq_km": 1250, "Area_ha": 125000}},
    {"type": "Feature", "geometry": {"type": "Point", "coordinates": [28.62, -13.50]}, "properties": {"Province": "Central", "District": "Kapiri Mposhi", "Block": "Kapiri Mposhi Block", "Camp": "Kapiri East Camp", "Area_Sq_km": 1100, "Area_ha": 110000}},
    {"type": "Feature", "geometry": {"type": "Point", "coordinates": [29.85, -13.60]}, "properties": {"Province": "Central", "District": "Serenje", "Block": "Serenje Block", "Camp": "Serenje North Camp", "Area_Sq_km": 1800, "Area_ha": 180000}},
    {"type": "Feature", "geometry": {"type": "Point", "coordinates": [30.25, -14.20]}, "properties": {"Province": "Central", "District": "Mkushi", "Block": "Mkushi Block", "Camp": "Mkushi Farm Block Camp", "Area_Sq_km": 2200, "Area_ha": 220000}},
    {"type": "Feature", "geometry": {"type": "Point", "coordinates": [27.88, -14.62]}, "properties": {"Province": "Central", "District": "Chibombo", "Block": "Chibombo Block", "Camp": "Chibombo South Camp", "Area_Sq_km": 950, "Area_ha": 95000}},
    {"type": "Feature", "geometry": {"type": "Point", "coordinates": [28.20, -12.82]}, "properties": {"Province": "Copperbelt", "District": "Kitwe", "Block": "Kitwe Block", "Camp": "Kitwe Peri-urban Camp", "Area_Sq_km": 350, "Area_ha": 35000}},
    {"type": "Feature", "geometry": {"type": "Point", "coordinates": [28.72, -13.20]}, "properties": {"Province": "Copperbelt", "District": "Ndola Rural", "Block": "Ndola Rural Block", "Camp": "Ndola Rural Camp", "Area_Sq_km": 600, "Area_ha": 60000}},
    {"type": "Feature", "geometry": {"type": "Point", "coordinates": [28.68, -13.90]}, "properties": {"Province": "Copperbelt", "District": "Mpongwe", "Block": "Mpongwe Block", "Camp": "Mpongwe Central Camp", "Area_Sq_km": 1400, "Area_ha": 140000}},
    {"type": "Feature", "geometry": {"type": "Point", "coordinates": [27.78, -13.75]}, "properties": {"Province": "Copperbelt", "District": "Lufwanyama", "Block": "Lufwanyama Block", "Camp": "Lufwanyama East Camp", "Area_Sq_km": 1650, "Area_ha": 165000}},
    {"type": "Feature", "geometry": {"type": "Point", "coordinates": [33.48, -13.95]}, "properties": {"Province": "Eastern", "District": "Chipata", "Block": "Chipata Block", "Camp": "Chipata North Camp", "Area_Sq_km": 1100, "Area_ha": 110000}},
    {"type": "Feature", "geometry": {"type": "Point", "coordinates": [32.65, -13.60]}, "properties": {"Province": "Eastern", "District": "Lundazi", "Block": "Lundazi Block", "Camp": "Lundazi Valley Camp", "Area_Sq_km": 1800, "Area_ha": 180000}},
    {"type": "Feature", "geometry": {"type": "Point", "coordinates": [32.88, -14.35]}, "properties": {"Province": "Eastern", "District": "Katete", "Block": "Katete Block", "Camp": "Katete Central Camp", "Area_Sq_km": 1300, "Area_ha": 130000}},
    {"type": "Feature", "geometry": {"type": "Point", "coordinates": [33.12, -14.80]}, "properties": {"Province": "Eastern", "District": "Petauke", "Block": "Petauke Block", "Camp": "Petauke East Camp", "Area_Sq_km": 1600, "Area_ha": 160000}},
    {"type": "Feature", "geometry": {"type": "Point", "coordinates": [32.15, -13.10]}, "properties": {"Province": "Eastern", "District": "Chama", "Block": "Chama Block", "Camp": "Chama South Camp", "Area_Sq_km": 2100, "Area_ha": 210000}},
    {"type": "Feature", "geometry": {"type": "Point", "coordinates": [28.45, -15.45]}, "properties": {"Province": "Lusaka", "District": "Lusaka", "Block": "Lusaka Block", "Camp": "Lusaka Peri-urban Camp", "Area_Sq_km": 300, "Area_ha": 30000}},
    {"type": "Feature", "geometry": {"type": "Point", "coordinates": [28.18, -15.30]}, "properties": {"Province": "Lusaka", "District": "Kafue", "Block": "Kafue Block", "Camp": "Kafue Agricultural Camp", "Area_Sq_km": 1200, "Area_ha": 120000}},
    {"type": "Feature", "geometry": {"type": "Point", "coordinates": [29.55, -15.70]}, "properties": {"Province": "Lusaka", "District": "Chirundu", "Block": "Chirundu Block", "Camp": "Chirundu River Camp", "Area_Sq_km": 980, "Area_ha": 98000}},
    {"type": "Feature", "geometry": {"type": "Point", "coordinates": [29.45, -11.20]}, "properties": {"Province": "Luapula", "District": "Samfya", "Province": "Luapula", "Block": "Samfya Block", "Camp": "Samfya Lakeshore Camp", "Area_Sq_km": 1050, "Area_ha": 105000}},
    {"type": "Feature", "geometry": {"type": "Point", "coordinates": [29.95, -10.15]}, "properties": {"Province": "Luapula", "District": "Mansa", "Block": "Mansa Block", "Camp": "Mansa Central Camp", "Area_Sq_km": 1300, "Area_ha": 130000}},
    {"type": "Feature", "geometry": {"type": "Point", "coordinates": [28.75, -9.20]}, "properties": {"Province": "Luapula", "District": "Nchelenge", "Block": "Nchelenge Block", "Camp": "Nchelenge Lakeshore Camp", "Area_Sq_km": 900, "Area_ha": 90000}},
    {"type": "Feature", "geometry": {"type": "Point", "coordinates": [31.68, -10.22]}, "properties": {"Province": "Northern", "District": "Kasama", "Block": "Kasama Block", "Camp": "Kasama North Camp", "Area_Sq_km": 1600, "Area_ha": 160000}},
    {"type": "Feature", "geometry": {"type": "Point", "coordinates": [30.45, -8.55]}, "properties": {"Province": "Northern", "District": "Mbala", "Block": "Mbala Block", "Camp": "Mbala Tanganyika Camp", "Area_Sq_km": 1400, "Area_ha": 140000}},
    {"type": "Feature", "geometry": {"type": "Point", "coordinates": [31.30, -9.70]}, "properties": {"Province": "Northern", "District": "Luwingu", "Block": "Luwingu Block", "Camp": "Luwingu Central Camp", "Area_Sq_km": 1750, "Area_ha": 175000}},
    {"type": "Feature", "geometry": {"type": "Point", "coordinates": [26.42, -12.18]}, "properties": {"Province": "North-Western", "District": "Solwezi", "Block": "Solwezi Block", "Camp": "Solwezi East Camp", "Area_Sq_km": 2200, "Area_ha": 220000}},
    {"type": "Feature", "geometry": {"type": "Point", "coordinates": [24.75, -11.05]}, "properties": {"Province": "North-Western", "District": "Mwinilunga", "Block": "Mwinilunga Block", "Camp": "Mwinilunga Central Camp", "Area_Sq_km": 2500, "Area_ha": 250000}},
    {"type": "Feature", "geometry": {"type": "Point", "coordinates": [22.72, -12.35]}, "properties": {"Province": "North-Western", "District": "Zambezi", "Block": "Zambezi Block", "Camp": "Zambezi North Camp", "Area_Sq_km": 3100, "Area_ha": 310000}},
    {"type": "Feature", "geometry": {"type": "Point", "coordinates": [24.42, -13.58]}, "properties": {"Province": "North-Western", "District": "Kasempa", "Block": "Kasempa Block", "Camp": "Kasempa River Camp", "Area_Sq_km": 2800, "Area_ha": 280000}},
    {"type": "Feature", "geometry": {"type": "Point", "coordinates": [27.45, -15.95]}, "properties": {"Province": "Southern", "District": "Monze", "Block": "Monze Block", "Camp": "Monze North Camp", "Area_Sq_km": 1200, "Area_ha": 120000}},
    {"type": "Feature", "geometry": {"type": "Point", "coordinates": [27.85, -14.82]}, "properties": {"Province": "Southern", "District": "Mazabuka", "Block": "Mazabuka Block", "Camp": "Mazabuka Sugar Belt Camp", "Area_Sq_km": 1400, "Area_ha": 140000}},
    {"type": "Feature", "geometry": {"type": "Point", "coordinates": [26.40, -16.85]}, "properties": {"Province": "Southern", "District": "Choma", "Block": "Choma Block", "Camp": "Choma East Camp", "Area_Sq_km": 1100, "Area_ha": 110000}},
    {"type": "Feature", "geometry": {"type": "Point", "coordinates": [26.00, -15.20]}, "properties": {"Province": "Southern", "District": "Namwala", "Block": "Namwala Block", "Camp": "Namwala Kafue Flats Camp", "Area_Sq_km": 1650, "Area_ha": 165000}},
    {"type": "Feature", "geometry": {"type": "Point", "coordinates": [27.14, -17.25]}, "properties": {"Province": "Southern", "District": "Sinazongwe", "Block": "Sinazongwe Block", "Camp": "Sinazongwe Valley Camp", "Area_Sq_km": 950, "Area_ha": 95000}},
    {"type": "Feature", "geometry": {"type": "Point", "coordinates": [31.10, -10.95]}, "properties": {"Province": "Muchinga", "District": "Isoka", "Block": "Isoka Block", "Camp": "Isoka Highland Camp", "Area_Sq_km": 1900, "Area_ha": 190000}},
    {"type": "Feature", "geometry": {"type": "Point", "coordinates": [31.55, -12.55]}, "properties": {"Province": "Muchinga", "District": "Chinsali", "Block": "Chinsali Block", "Camp": "Chinsali Central Camp", "Area_Sq_km": 2100, "Area_ha": 210000}},
    {"type": "Feature", "geometry": {"type": "Point", "coordinates": [31.25, -11.65]}, "properties": {"Province": "Muchinga", "District": "Mpika", "Block": "Mpika Block", "Camp": "Mpika Plateau Camp", "Area_Sq_km": 2500, "Area_ha": 250000}},
    {"type": "Feature", "geometry": {"type": "Point", "coordinates": [32.35, -11.80]}, "properties": {"Province": "Muchinga", "District": "Nakonde", "Block": "Nakonde Block", "Camp": "Nakonde Border Camp", "Area_Sq_km": 1200, "Area_ha": 120000}},
    {"type": "Feature", "geometry": {"type": "Point", "coordinates": [22.15, -14.82]}, "properties": {"Province": "Western", "District": "Kalabo", "Block": "Kalabo Block", "Camp": "Kalabo Floodplain Camp", "Area_Sq_km": 3200, "Area_ha": 320000}},
    {"type": "Feature", "geometry": {"type": "Point", "coordinates": [23.12, -16.05]}, "properties": {"Province": "Western", "District": "Senanga", "Block": "Senanga Block", "Camp": "Senanga East Camp", "Area_Sq_km": 2700, "Area_ha": 270000}},
    {"type": "Feature", "geometry": {"type": "Point", "coordinates": [22.50, -15.20]}, "properties": {"Province": "Western", "District": "Lukulu", "Block": "Lukulu Block", "Camp": "Lukulu Upland Camp", "Area_Sq_km": 3000, "Area_ha": 300000}},
    {"type": "Feature", "geometry": {"type": "Point", "coordinates": [23.50, -14.10]}, "properties": {"Province": "Western", "District": "Kaoma", "Block": "Kaoma Block", "Camp": "Kaoma Central Camp", "Area_Sq_km": 2400, "Area_ha": 240000}}
  ]
}
