{
  "_note": "Static fallback data — used when live ArcGIS server is unavailable. Data sourced from public records.",
  "type": "FeatureCollection",
  "features": [
    {"type": "Feature", "geometry": {"type": "Point", "coordinates": [28.28, -15.42]}, "properties": {"PovName": "Lusaka", "DistName": "Lusaka", "ConstName": "Lusaka Central", "ConstNo": 101}},
    {"type": "Feature", "geometry": {"type": "Point", "coordinates": [28.32, -15.46]}, "properties": {"PovName": "Lusaka", "DistName": "Lusaka", "ConstName": "Mandevu", "ConstNo": 102}},
    {"type": "Feature", "geometry": {"type": "Point", "coordinates": [28.25, -15.43]}, "properties": {"PovName": "Lusaka", "DistName": "Lusaka", "ConstName": "Kanyama", "ConstNo": 103}},
    {"type": "Feature", "geometry": {"type": "Point", "coordinates": [28.22, -15.40]}, "properties": {"PovName": "Lusaka", "DistName": "Lusaka", "ConstName": "Matero", "ConstNo": 104}},
    {"type": "Feature", "geometry": {"type": "Point", "coordinates": [28.30, -15.35]}, "properties": {"PovName": "Lusaka", "DistName": "Lusaka", "ConstName": "Munali", "ConstNo": 105}},
    {"type": "Feature", "geometry": {"type": "Point", "coordinates": [28.35, -15.38]}, "properties": {"PovName": "Lusaka", "DistName": "Lusaka", "ConstName": "Kabwata", "ConstNo": 106}},
    {"type": "Feature", "geometry": {"type": "Point", "coordinates": [28.40, -15.42]}, "properties": {"PovName": "Lusaka", "DistName": "Lusaka", "ConstName": "Chawama", "ConstNo": 107}},
    {"type": "Feature", "geometry": {"type": "Point", "coordinates": [28.18, -15.30]}, "properties": {"PovName": "Lusaka", "DistName": "Kafue", "ConstName": "Kafue", "ConstNo": 108}},
    {"type": "Feature", "geometry": {"type": "Point", "coordinates": [28.21, -12.80]}, "properties": {"PovName": "Copperbelt", "DistName": "Kitwe", "ConstName": "Kamfinsa", "ConstNo": 201}},
    {"type": "Feature", "geometry": {"type": "Point", "coordinates": [28.16, -12.82]}, "properties": {"PovName": "Copperbelt", "DistName": "Kitwe", "ConstName": "Chimwemwe", "ConstNo": 202}},
    {"type": "Feature", "geometry": {"type": "Point", "coordinates": [28.19, -12.78]}, "properties": {"PovName": "Copperbelt", "DistName": "Kitwe", "ConstName": "Nkana", "ConstNo": 203}},
    {"type": "Feature", "geometry": {"type": "Point", "coordinates": [28.24, -12.75]}, "properties": {"PovName": "Copperbelt", "DistName": "Kitwe", "ConstName": "St. Anthony", "ConstNo": 204}},
    {"type": "Feature", "geometry": {"type": "Point", "coordinates": [28.65, -12.97]}, "properties": {"PovName": "Copperbelt", "DistName": "Ndola", "ConstName": "Ndola Central", "ConstNo": 205}},
    {"type": "Feature", "geometry": {"type": "Point", "coordinates": [28.62, -12.99]}, "properties": {"PovName": "Copperbelt", "DistName": "Ndola", "ConstName": "Bwana Mkubwa", "ConstNo": 206}},
    {"type": "Feature", "geometry": {"type": "Point", "coordinates": [28.71, -13.05]}, "properties": {"PovName": "Copperbelt", "DistName": "Ndola", "ConstName": "Kankoyo", "ConstNo": 207}},
    {"type": "Feature", "geometry": {"type": "Point", "coordinates": [28.40, -13.13]}, "properties": {"PovName": "Copperbelt", "DistName": "Luanshya", "ConstName": "Roan", "ConstNo": 208}},
    {"type": "Feature", "geometry": {"type": "Point", "coordinates": [28.38, -13.10]}, "properties": {"PovName": "Copperbelt", "DistName": "Luanshya", "ConstName": "Luanshya Central", "ConstNo": 209}},
    {"type": "Feature", "geometry": {"type": "Point", "coordinates": [27.83, -12.36]}, "properties": {"PovName": "Copperbelt", "DistName": "Chililabombwe", "ConstName": "Chililabombwe", "ConstNo": 210}},
    {"type": "Feature", "geometry": {"type": "Point", "coordinates": [26.42, -12.18]}, "properties": {"PovName": "North-Western", "DistName": "Solwezi", "ConstName": "Solwezi Central", "ConstNo": 301}},
    {"type": "Feature", "geometry": {"type": "Point", "coordinates": [26.52, -12.10]}, "properties": {"PovName": "North-Western", "DistName": "Solwezi", "ConstName": "Solwezi East", "ConstNo": 302}},
    {"type": "Feature", "geometry": {"type": "Point", "coordinates": [26.38, -12.22]}, "properties": {"PovName": "North-Western", "DistName": "Solwezi", "ConstName": "Solwezi West", "ConstNo": 303}},
    {"type": "Feature", "geometry": {"type": "Point", "coordinates": [25.50, -12.08]}, "properties": {"PovName": "North-Western", "DistName": "Kalumbila", "ConstName": "Kalumbila", "ConstNo": 304}},
    {"type": "Feature", "geometry": {"type": "Point", "coordinates": [24.75, -11.05]}, "properties": {"PovName": "North-Western", "DistName": "Mwinilunga", "ConstName": "Mwinilunga", "ConstNo": 305}},
    {"type": "Feature", "geometry": {"type": "Point", "coordinates": [22.72, -12.35]}, "properties": {"PovName": "North-Western", "DistName": "Zambezi", "ConstName": "Zambezi", "ConstNo": 306}},
    {"type": "Feature", "geometry": {"type": "Point", "coordinates": [24.42, -13.58]}, "properties": {"PovName": "North-Western", "DistName": "Kasempa", "ConstName": "Kasempa", "ConstNo": 307}},
    {"type": "Feature", "geometry": {"type": "Point", "coordinates": [25.12, -13.68]}, "properties": {"PovName": "North-Western", "DistName": "Kabompo", "ConstName": "Kabompo", "ConstNo": 308}},
    {"type": "Feature", "geometry": {"type": "Point", "coordinates": [33.48, -13.95]}, "properties": {"PovName": "Eastern", "DistName": "Chipata", "ConstName": "Chipata Central", "ConstNo": 401}},
    {"type": "Feature", "geometry": {"type": "Point", "coordinates": [33.58, -14.05]}, "properties": {"PovName": "Eastern", "DistName": "Chipata", "ConstName": "Chipata West", "ConstNo": 402}},
    {"type": "Feature", "geometry": {"type": "Point", "coordinates": [33.42, -13.88]}, "properties": {"PovName": "Eastern", "DistName": "Chipata", "ConstName": "Chipata North", "ConstNo": 403}},
    {"type": "Feature", "geometry": {"type": "Point", "coordinates": [32.65, -13.60]}, "properties": {"PovName": "Eastern", "DistName": "Lundazi", "ConstName": "Lundazi", "ConstNo": 404}},
    {"type": "Feature", "geometry": {"type": "Point", "coordinates": [32.88, -14.35]}, "properties": {"PovName": "Eastern", "DistName": "Katete", "ConstName": "Katete", "ConstNo": 405}},
    {"type": "Feature", "geometry": {"type": "Point", "coordinates": [33.12, -14.80]}, "properties": {"PovName": "Eastern", "DistName": "Petauke", "ConstName": "Petauke", "ConstNo": 406}},
    {"type": "Feature", "geometry": {"type": "Point", "coordinates": [32.15, -13.10]}, "properties": {"PovName": "Eastern", "DistName": "Chama", "ConstName": "Chama North", "ConstNo": 407}},
    {"type": "Feature", "geometry": {"type": "Point", "coordinates": [32.05, -14.12]}, "properties": {"PovName": "Eastern", "DistName": "Chadiza", "ConstName": "Chadiza", "ConstNo": 408}},
    {"type": "Feature", "geometry": {"type": "Point", "coordinates": [31.68, -10.22]}, "properties": {"PovName": "Northern", "DistName": "Kasama", "ConstName": "Kasama Central", "ConstNo": 501}},
    {"type": "Feature", "geometry": {"type": "Point", "coordinates": [31.78, -10.15]}, "properties": {"PovName": "Northern", "DistName": "Kasama", "ConstName": "Kasama West", "ConstNo": 502}},
    {"type": "Feature", "geometry": {"type": "Point", "coordinates": [30.45, -8.55]}, "properties": {"PovName": "Northern", "DistName": "Mbala", "ConstName": "Mbala", "ConstNo": 503}},
    {"type": "Feature", "geometry": {"type": "Point", "coordinates": [30.55, -9.40]}, "properties": {"PovName": "Northern", "DistName": "Mpulungu", "ConstName": "Mpulungu", "ConstNo": 504}},
    {"type": "Feature", "geometry": {"type": "Point", "coordinates": [31.30, -9.70]}, "properties": {"PovName": "Northern", "DistName": "Luwingu", "ConstName": "Luwingu", "ConstNo": 505}},
    {"type": "Feature", "geometry": {"type": "Point", "coordinates": [29.25, -10.45]}, "properties": {"PovName": "Northern", "DistName": "Chilubi", "ConstName": "Chilubi", "ConstNo": 506}},
    {"type": "Feature", "geometry": {"type": "Point", "coordinates": [30.85, -9.05]}, "properties": {"PovName": "Northern", "DistName": "Kaputa", "ConstName": "Kaputa", "ConstNo": 507}},
    {"type": "Feature", "geometry": {"type": "Point", "coordinates": [30.25, -8.92]}, "properties": {"PovName": "Northern", "DistName": "Nsama", "ConstName": "Nsama", "ConstNo": 508}},
    {"type": "Feature", "geometry": {"type": "Point", "coordinates": [29.45, -11.20]}, "properties": {"PovName": "Luapula", "DistName": "Samfya", "ConstName": "Samfya", "ConstNo": 601}},
    {"type": "Feature", "geometry": {"type": "Point", "coordinates": [29.95, -10.15]}, "properties": {"PovName": "Luapula", "DistName": "Mansa", "ConstName": "Mansa Central", "ConstNo": 602}},
    {"type": "Feature", "geometry": {"type": "Point", "coordinates": [30.02, -10.08]}, "properties": {"PovName": "Luapula", "DistName": "Mansa", "ConstName": "Mansa East", "ConstNo": 603}},
    {"type": "Feature", "geometry": {"type": "Point", "coordinates": [28.75, -9.20]}, "properties": {"PovName": "Luapula", "DistName": "Nchelenge", "ConstName": "Nchelenge", "ConstNo": 604}},
    {"type": "Feature", "geometry": {"type": "Point", "coordinates": [28.80, -10.55]}, "properties": {"PovName": "Luapula", "DistName": "Kawambwa", "ConstName": "Kawambwa", "ConstNo": 605}},
    {"type": "Feature", "geometry": {"type": "Point", "coordinates": [29.30, -9.75]}, "properties": {"PovName": "Luapula", "DistName": "Chipili", "ConstName": "Chipili", "ConstNo": 606}},
    {"type": "Feature", "geometry": {"type": "Point", "coordinates": [29.60, -9.00]}, "properties": {"PovName": "Luapula", "DistName": "Luapula", "ConstName": "Luapula", "ConstNo": 607}},
    {"type": "Feature", "geometry": {"type": "Point", "coordinates": [28.82, -11.45]}, "properties": {"PovName": "Luapula", "DistName": "Mwense", "ConstName": "Mwense", "ConstNo": 608}},
    {"type": "Feature", "geometry": {"type": "Point", "coordinates": [27.45, -15.95]}, "properties": {"PovName": "Southern", "DistName": "Monze", "ConstName": "Monze Central", "ConstNo": 701}},
    {"type": "Feature", "geometry": {"type": "Point", "coordinates": [27.55, -15.88]}, "properties": {"PovName": "Southern", "DistName": "Monze", "ConstName": "Monze West", "ConstNo": 702}},
    {"type": "Feature", "geometry": {"type": "Point", "coordinates": [27.85, -14.82]}, "properties": {"PovName": "Southern", "DistName": "Mazabuka", "ConstName": "Mazabuka Central", "ConstNo": 703}},
    {"type": "Feature", "geometry": {"type": "Point", "coordinates": [27.92, -14.90]}, "properties": {"PovName": "Southern", "DistName": "Mazabuka", "ConstName": "Mazabuka West", "ConstNo": 704}},
    {"type": "Feature", "geometry": {"type": "Point", "coordinates": [26.40, -16.85]}, "properties": {"PovName": "Southern", "DistName": "Choma", "ConstName": "Choma Central", "ConstNo": 705}},
    {"type": "Feature", "geometry": {"type": "Point", "coordinates": [25.88, -17.88]}, "properties": {"PovName": "Southern", "DistName": "Livingstone", "ConstName": "Livingstone Central", "ConstNo": 706}},
    {"type": "Feature", "geometry": {"type": "Point", "coordinates": [25.95, -17.82]}, "properties": {"PovName": "Southern", "DistName": "Livingstone", "ConstName": "Livingstone East", "ConstNo": 707}},
    {"type": "Feature", "geometry": {"type": "Point", "coordinates": [26.00, -15.20]}, "properties": {"PovName": "Southern", "DistName": "Namwala", "ConstName": "Namwala", "ConstNo": 708}},
    {"type": "Feature", "geometry": {"type": "Point", "coordinates": [28.45, -14.90]}, "properties": {"PovName": "Central", "DistName": "Kabwe", "ConstName": "Kabwe Central", "ConstNo": 801}},
    {"type": "Feature", "geometry": {"type": "Point", "coordinates": [28.55, -14.98]}, "properties": {"PovName": "Central", "DistName": "Kabwe", "ConstName": "Bwacha", "ConstNo": 802}},
    {"type": "Feature", "geometry": {"type": "Point", "coordinates": [28.62, -13.50]}, "properties": {"PovName": "Central", "DistName": "Kapiri Mposhi", "ConstName": "Kapiri Mposhi", "ConstNo": 803}},
    {"type": "Feature", "geometry": {"type": "Point", "coordinates": [29.85, -13.60]}, "properties": {"PovName": "Central", "DistName": "Serenje", "ConstName": "Serenje", "ConstNo": 804}},
    {"type": "Feature", "geometry": {"type": "Point", "coordinates": [30.25, -14.20]}, "properties": {"PovName": "Central", "DistName": "Mkushi", "ConstName": "Mkushi North", "ConstNo": 805}},
    {"type": "Feature", "geometry": {"type": "Point", "coordinates": [30.18, -14.28]}, "properties": {"PovName": "Central", "DistName": "Mkushi", "ConstName": "Mkushi South", "ConstNo": 806}},
    {"type": "Feature", "geometry": {"type": "Point", "coordinates": [27.88, -14.62]}, "properties": {"PovName": "Central", "DistName": "Chibombo", "ConstName": "Chibombo", "ConstNo": 807}},
    {"type": "Feature", "geometry": {"type": "Point", "coordinates": [28.15, -14.48]}, "properties": {"PovName": "Central", "DistName": "Chibombo", "ConstName": "Keembe", "ConstNo": 808}},
    {"type": "Feature", "geometry": {"type": "Point", "coordinates": [31.10, -10.95]}, "properties": {"PovName": "Muchinga", "DistName": "Isoka", "ConstName": "Isoka", "ConstNo": 901}},
    {"type": "Feature", "geometry": {"type": "Point", "coordinates": [31.55, -12.55]}, "properties": {"PovName": "Muchinga", "DistName": "Chinsali", "ConstName": "Chinsali", "ConstNo": 902}},
    {"type": "Feature", "geometry": {"type": "Point", "coordinates": [31.25, -11.65]}, "properties": {"PovName": "Muchinga", "DistName": "Mpika", "ConstName": "Mpika Central", "ConstNo": 903}},
    {"type": "Feature", "geometry": {"type": "Point", "coordinates": [31.35, -11.55]}, "properties": {"PovName": "Muchinga", "DistName": "Mpika", "ConstName": "Kanchibiya", "ConstNo": 904}},
    {"type": "Feature", "geometry": {"type": "Point", "coordinates": [32.35, -11.80]}, "properties": {"PovName": "Muchinga", "DistName": "Nakonde", "ConstName": "Nakonde", "ConstNo": 905}},
    {"type": "Feature", "geometry": {"type": "Point", "coordinates": [32.25, -11.65]}, "properties": {"PovName": "Muchinga", "DistName": "Nakonde", "ConstName": "Chama South", "ConstNo": 906}},
    {"type": "Feature", "geometry": {"type": "Point", "coordinates": [31.82, -11.82]}, "properties": {"PovName": "Muchinga", "DistName": "Lavushimanda", "ConstName": "Lavushimanda", "ConstNo": 907}},
    {"type": "Feature", "geometry": {"type": "Point", "coordinates": [22.15, -14.82]}, "properties": {"PovName": "Western", "DistName": "Kalabo", "ConstName": "Kalabo Central", "ConstNo": 1001}},
    {"type": "Feature", "geometry": {"type": "Point", "coordinates": [22.28, -14.92]}, "properties": {"PovName": "Western", "DistName": "Kalabo", "ConstName": "Sikongo", "ConstNo": 1002}},
    {"type": "Feature", "geometry": {"type": "Point", "coordinates": [23.12, -16.05]}, "properties": {"PovName": "Western", "DistName": "Senanga", "ConstName": "Senanga Central", "ConstNo": 1003}},
    {"type": "Feature", "geometry": {"type": "Point", "coordinates": [23.20, -16.12]}, "properties": {"PovName": "Western", "DistName": "Senanga", "ConstName": "Senanga West", "ConstNo": 1004}},
    {"type": "Feature", "geometry": {"type": "Point", "coordinates": [22.50, -15.20]}, "properties": {"PovName": "Western", "DistName": "Lukulu", "ConstName": "Lukulu East", "ConstNo": 1005}},
    {"type": "Feature", "geometry": {"type": "Point", "coordinates": [22.42, -15.28]}, "properties": {"PovName": "Western", "DistName": "Lukulu", "ConstName": "Lukulu West", "ConstNo": 1006}},
    {"type": "Feature", "geometry": {"type": "Point", "coordinates": [23.50, -14.10]}, "properties": {"PovName": "Western", "DistName": "Kaoma", "ConstName": "Kaoma Central", "ConstNo": 1007}},
    {"type": "Feature", "geometry": {"type": "Point", "coordinates": [22.38, -17.85]}, "properties": {"PovName": "Western", "DistName": "Sesheke", "ConstName": "Sesheke Central", "ConstNo": 1008}}
  ]
}
