{
  "_note": "Static fallback data — used when live ArcGIS server is unavailable. Data sourced from public records.",
  "type": "FeatureCollection",
  "features": [
    {"type": "Feature", "geometry": {"type": "Point", "coordinates": [22.15, -14.82]}, "properties": {"Province": "Western", "District": "Kalabo", "Settlement_Name": "Kalabo Mission", "Access_Type": "microgrid", "Population_Served": 3200, "Year": 2019}},
    {"type": "Feature", "geometry": {"type": "Point", "coordinates": [22.52, -15.22]}, "properties": {"Province": "Western", "District": "Lukulu", "Settlement_Name": "Lukulu Boma", "Access_Type": "solar_home", "Population_Served": 1800, "Year": 2020}},
    {"type": "Feature", "geometry": {"type": "Point", "coordinates": [21.85, -14.45]}, "properties": {"Province": "Western", "District": "Kalabo", "Settlement_Name": "Nangweshi Refugee Camp", "Access_Type": "solar_home", "Population_Served": 8500, "Year": 2018}},
    {"type": "Feature", "geometry": {"type": "Point", "coordinates": [23.50, -14.05]}, "properties": {"Province": "Western", "District": "Kaoma", "Settlement_Name": "Mangango", "Access_Type": "none", "Population_Served": 0, "Year": null}},
    {"type": "Feature", "geometry": {"type": "Point", "coordinates": [23.12, -16.10]}, "properties": {"Province": "Western", "District": "Senanga", "Settlement_Name": "Siloana", "Access_Type": "none", "Population_Served": 0, "Year": null}},
    {"type": "Feature", "geometry": {"type": "Point", "coordinates": [24.78, -11.08]}, "properties": {"Province": "North-Western", "District": "Mwinilunga", "Settlement_Name": "Mwinilunga Boma", "Access_Type": "microgrid", "Population_Served": 4500, "Year": 2016}},
    {"type": "Feature", "geometry": {"type": "Point", "coordinates": [22.72, -12.38]}, "properties": {"Province": "North-Western", "District": "Zambezi", "Settlement_Name": "Zambezi Boma", "Access_Type": "solar_home", "Population_Served": 2200, "Year": 2018}},
    {"type": "Feature", "geometry": {"type": "Point", "coordinates": [25.18, -11.52]}, "properties": {"Province": "North-Western", "District": "Chavuma", "Settlement_Name": "Chavuma Mission", "Access_Type": "solar_home", "Population_Served": 1500, "Year": 2021}},
    {"type": "Feature", "geometry": {"type": "Point", "coordinates": [24.42, -13.62]}, "properties": {"Province": "North-Western", "District": "Kasempa", "Settlement_Name": "Kasempa Boma", "Access_Type": "solar_home", "Population_Served": 2800, "Year": 2020}},
    {"type": "Feature", "geometry": {"type": "Point", "coordinates": [29.28, -10.42]}, "properties": {"Province": "Northern", "District": "Chilubi", "Settlement_Name": "Chilubi Island Boma", "Access_Type": "microgrid", "Population_Served": 5200, "Year": 2021}},
    {"type": "Feature", "geometry": {"type": "Point", "coordinates": [30.88, -9.05]}, "properties": {"Province": "Northern", "District": "Kaputa", "Settlement_Name": "Kaputa Boma", "Access_Type": "solar_home", "Population_Served": 1800, "Year": 2019}},
    {"type": "Feature", "geometry": {"type": "Point", "coordinates": [30.55, -9.42]}, "properties": {"Province": "Northern", "District": "Mpulungu", "Settlement_Name": "Sumbu Lodge Area", "Access_Type": "solar_home", "Population_Served": 600, "Year": 2020}},
    {"type": "Feature", "geometry": {"type": "Point", "coordinates": [30.25, -8.95]}, "properties": {"Province": "Northern", "District": "Nsama", "Settlement_Name": "Nsama Boma", "Access_Type": "none", "Population_Served": 0, "Year": null}},
    {"type": "Feature", "geometry": {"type": "Point", "coordinates": [28.78, -9.22]}, "properties": {"Province": "Luapula", "District": "Nchelenge", "Settlement_Name": "Nchelenge Fishing Village", "Access_Type": "solar_home", "Population_Served": 3400, "Year": 2020}},
    {"type": "Feature", "geometry": {"type": "Point", "coordinates": [29.32, -9.78]}, "properties": {"Province": "Luapula", "District": "Chipili", "Settlement_Name": "Chipili Mission", "Access_Type": "solar_home", "Population_Served": 1200, "Year": 2021}},
    {"type": "Feature", "geometry": {"type": "Point", "coordinates": [28.82, -10.58]}, "properties": {"Province": "Luapula", "District": "Kawambwa", "Settlement_Name": "Kawambwa Boma", "Access_Type": "microgrid", "Population_Served": 3800, "Year": 2019}},
    {"type": "Feature", "geometry": {"type": "Point", "coordinates": [29.48, -11.22]}, "properties": {"Province": "Luapula", "District": "Samfya", "Settlement_Name": "Samfya Lakeside", "Access_Type": "solar_home", "Population_Served": 2200, "Year": 2020}},
    {"type": "Feature", "geometry": {"type": "Point", "coordinates": [31.12, -10.98]}, "properties": {"Province": "Muchinga", "District": "Isoka", "Settlement_Name": "Isoka Boma", "Access_Type": "solar_home", "Population_Served": 2500, "Year": 2020}},
    {"type": "Feature", "geometry": {"type": "Point", "coordinates": [31.58, -12.58]}, "properties": {"Province": "Muchinga", "District": "Chinsali", "Settlement_Name": "Chinsali Boma", "Access_Type": "solar_home", "Population_Served": 3200, "Year": 2018}},
    {"type": "Feature", "geometry": {"type": "Point", "coordinates": [31.28, -11.68]}, "properties": {"Province": "Muchinga", "District": "Mpika", "Settlement_Name": "Mpika Boma", "Access_Type": "grid", "Population_Served": 12000, "Year": 2015}},
    {"type": "Feature", "geometry": {"type": "Point", "coordinates": [32.38, -11.82]}, "properties": {"Province": "Muchinga", "District": "Nakonde", "Settlement_Name": "Nakonde Border Town", "Access_Type": "grid", "Population_Served": 18000, "Year": 2010}},
    {"type": "Feature", "geometry": {"type": "Point", "coordinates": [32.68, -13.62]}, "properties": {"Province": "Eastern", "District": "Lundazi", "Settlement_Name": "Lundazi Boma", "Access_Type": "solar_home", "Population_Served": 4200, "Year": 2018}},
    {"type": "Feature", "geometry": {"type": "Point", "coordinates": [32.18, -13.12]}, "properties": {"Province": "Eastern", "District": "Chama", "Settlement_Name": "Chama Boma", "Access_Type": "none", "Population_Served": 0, "Year": null}},
    {"type": "Feature", "geometry": {"type": "Point", "coordinates": [32.88, -14.38]}, "properties": {"Province": "Eastern", "District": "Katete", "Settlement_Name": "Katete Mission Hospital Area", "Access_Type": "solar_home", "Population_Served": 3600, "Year": 2021}},
    {"type": "Feature", "geometry": {"type": "Point", "coordinates": [33.14, -14.82]}, "properties": {"Province": "Eastern", "District": "Petauke", "Settlement_Name": "Petauke Boma", "Access_Type": "solar_home", "Population_Served": 5500, "Year": 2019}},
    {"type": "Feature", "geometry": {"type": "Point", "coordinates": [29.88, -13.58]}, "properties": {"Province": "Central", "District": "Serenje", "Settlement_Name": "Serenje Boma", "Access_Type": "grid", "Population_Served": 8500, "Year": 2012}},
    {"type": "Feature", "geometry": {"type": "Point", "coordinates": [30.28, -14.22]}, "properties": {"Province": "Central", "District": "Mkushi", "Settlement_Name": "Mkushi Boma", "Access_Type": "grid", "Population_Served": 6200, "Year": 2014}},
    {"type": "Feature", "geometry": {"type": "Point", "coordinates": [27.50, -15.98]}, "properties": {"Province": "Southern", "District": "Monze", "Settlement_Name": "Monze Rural Clinic Area", "Access_Type": "solar_home", "Population_Served": 1800, "Year": 2021}},
    {"type": "Feature", "geometry": {"type": "Point", "coordinates": [27.18, -17.28]}, "properties": {"Province": "Southern", "District": "Sinazongwe", "Settlement_Name": "Sinazongwe Lakeshore", "Access_Type": "solar_home", "Population_Served": 2200, "Year": 2022}},
    {"type": "Feature", "geometry": {"type": "Point", "coordinates": [26.72, -17.42]}, "properties": {"Province": "Southern", "District": "Gwembe", "Settlement_Name": "Gwembe Valley Village", "Access_Type": "none", "Population_Served": 0, "Year": null}},
    {"type": "Feature", "geometry": {"type": "Point", "coordinates": [26.02, -15.22]}, "properties": {"Province": "Southern", "District": "Namwala", "Settlement_Name": "Namwala Cattle Camp", "Access_Type": "none", "Population_Served": 0, "Year": null}},
    {"type": "Feature", "geometry": {"type": "Point", "coordinates": [28.28, -15.42]}, "properties": {"Province": "Lusaka", "District": "Lusaka", "Settlement_Name": "Misisi Compound", "Access_Type": "grid", "Population_Served": 42000, "Year": 2008}},
    {"type": "Feature", "geometry": {"type": "Point", "coordinates": [28.32, -15.35]}, "properties": {"Province": "Lusaka", "District": "Lusaka", "Settlement_Name": "Ng'ombe Compound", "Access_Type": "grid", "Population_Served": 35000, "Year": 2010}},
    {"type": "Feature", "geometry": {"type": "Point", "coordinates": [29.18, -14.95]}, "properties": {"Province": "Lusaka", "District": "Luangwa", "Settlement_Name": "Luangwa Boma", "Access_Type": "solar_home", "Population_Served": 1500, "Year": 2021}},
    {"type": "Feature", "geometry": {"type": "Point", "coordinates": [29.58, -15.72]}, "properties": {"Province": "Lusaka", "District": "Chirundu", "Settlement_Name": "Chirundu Border Post", "Access_Type": "grid", "Population_Served": 5500, "Year": 2005}},
    {"type": "Feature", "geometry": {"type": "Point", "coordinates": [28.22, -12.80]}, "properties": {"Province": "Copperbelt", "District": "Kitwe", "Settlement_Name": "Wusakile Mine Township", "Access_Type": "grid", "Population_Served": 28000, "Year": 1968}},
    {"type": "Feature", "geometry": {"type": "Point", "coordinates": [28.72, -13.92]}, "properties": {"Province": "Copperbelt", "District": "Mpongwe", "Settlement_Name": "Mpongwe Rural Compound", "Access_Type": "solar_home", "Population_Served": 1200, "Year": 2022}},
    {"type": "Feature", "geometry": {"type": "Point", "coordinates": [27.82, -13.82]}, "properties": {"Province": "Copperbelt", "District": "Lufwanyama", "Settlement_Name": "Lufwanyama Chiefdom", "Access_Type": "solar_home", "Population_Served": 900, "Year": 2021}},
    {"type": "Feature", "geometry": {"type": "Point", "coordinates": [31.70, -10.24]}, "properties": {"Province": "Northern", "District": "Kasama", "Settlement_Name": "Kasama Peri-urban", "Access_Type": "grid", "Population_Served": 32000, "Year": 2005}},
    {"type": "Feature", "geometry": {"type": "Point", "coordinates": [29.98, -10.18]}, "properties": {"Province": "Luapula", "District": "Mansa", "Settlement_Name": "Mansa Town", "Access_Type": "grid", "Population_Served": 45000, "Year": 2000}}
  ]
}
