{"type":"FeatureCollection","features":[{"type":"Feature","id":1,"geometry":{"type":"Point","coordinates":[27.9338397979683,-12.7452600004486]},"properties":{"FID":1,"LAT":-12.7452600004,"LONG":27.933839798,"GlobalID":"35LPF013908_001","Province":"Copperbelt","ProvinCode":102,"District":"Chingola","DistrCode":"102002","Source":"ZamStats","Type":"Religion","Name":"Seventh Day Adventist Mwambashi","Theme":"Religion","Data_year":"2010"}},{"type":"Feature","id":2,"geometry":{"type":"Point","coordinates":[27.8574199673577,-12.6936399995863]},"properties":{"FID":2,"LAT":-12.6936399996,"LONG":27.8574199674,"GlobalID":"35LNF930965_001","Province":"Copperbelt","ProvinCode":102,"District":"Chingola","DistrCode":"102002","Source":"ZamStats","Type":"Religion","Name":"Seventh Day Adventist Mwambashi","Theme":"Religion","Data_year":"2010"}},{"type":"Feature","id":3,"geometry":{"type":"Point","coordinates":[28.4573001863546,-12.8149199995583]},"properties":{"FID":3,"LAT":-12.8149199996,"LONG":28.4573001864,"GlobalID":"35LPF581828_002","Province":"Copperbelt","ProvinCode":102,"District":"Kitwe","DistrCode":"102004","Source":"ZamStats","Type":"Religion","Name":"Mitengo B Seventh Day Adventist","Theme":"Religion","Data_year":"2010"}},{"type":"Feature","id":4,"geometry":{"type":"Point","coordinates":[28.4934005740773,-12.9781600000839]},"properties":{"FID":4,"LAT":-12.9781600001,"LONG":28.4934005741,"GlobalID":"35LPF619648_001","Province":"Copperbelt","ProvinCode":102,"District":"Luanshya","DistrCode":"102005","Source":"ZamStats","Type":"Religion","Name":"Seventh Day Adventist","Theme":"Religion","Data_year":"2010"}},{"type":"Feature","id":5,"geometry":{"type":"Point","coordinates":[28.5097007753706,-12.8120100002612]},"properties":{"FID":5,"LAT":-12.8120100003,"LONG":28.5097007754,"GlobalID":"35LPF638831_001","Province":"Copperbelt","ProvinCode":102,"District":"Kitwe","DistrCode":"102004","Source":"ZamStats","Type":"Religion","Name":"Mwekera Seventh Day Adventist","Theme":"Religion","Data_year":"2010"}},{"type":"Feature","id":6,"geometry":{"type":"Point","coordinates":[28.1497993455634,-12.6856499998476]},"properties":{"FID":6,"LAT":-12.6856499998,"LONG":28.1497993465,"GlobalID":"35LPF248973_002","Province":"Copperbelt","ProvinCode":102,"District":"Kitwe","DistrCode":"102004","Source":"ZamStats","Type":"Religion","Name":"Seventh Day Adventist","Theme":"Religion","Data_year":"2010"}},{"type":"Feature","id":7,"geometry":{"type":"Point","coordinates":[28.1735000607792,-12.733140000011]},"properties":{"FID":7,"LAT":-12.73314,"LONG":28.1735000608,"GlobalID":"35LPF273920_001","Province":"Copperbelt","ProvinCode":102,"District":"Kitwe","DistrCode":"102004","Source":"ZamStats","Type":"Section","Name":"St Francis Sec","Theme":"Built and Settled Environment","Data_year":"2010"}},{"type":"Feature","id":8,"geometry":{"type":"Point","coordinates":[27.8733997348099,-12.7509700002652]},"properties":{"FID":8,"LAT":-12.7509700003,"LONG":27.8733997348,"GlobalID":"35LNF948902_001","Province":"Copperbelt","ProvinCode":102,"District":"Kalulushi","DistrCode":"102003","Source":"ZamStats","Type":"Seasonal Settlement","Name":"Seasonal Home","Theme":"Built and Settled Environment","Data_year":"2010"}},{"type":"Feature","id":9,"geometry":{"type":"Point","coordinates":[27.9398002625721,-12.8088199997432]},"properties":{"FID":9,"LAT":-12.8088199997,"LONG":27.9398002626,"GlobalID":"35LPF019838_001","Province":"Copperbelt","ProvinCode":102,"District":"Kalulushi","DistrCode":"102003","Source":"ZamStats","Type":"Seasonal Settlement","Name":"Seasonal Hut","Theme":"Built and Settled Environment","Data_year":"2010"}},{"type":"Feature","id":10,"geometry":{"type":"Point","coordinates":[27.8526000976165,-12.7821599996842]},"properties":{"FID":10,"LAT":-12.7821599997,"LONG":27.8526000976,"GlobalID":"35LNF925868_001","Province":"Copperbelt","ProvinCode":102,"District":"Kalulushi","DistrCode":"102003","Source":"ZamStats","Type":"Religion","Name":"Catholic Seventh Day Adventist","Theme":"Religion","Data_year":"2010"}},{"type":"Feature","id":11,"geometry":{"type":"Point","coordinates":[27.8735008240039,-12.7554599995793]},"properties":{"FID":11,"LAT":-12.7554599996,"LONG":27.873500824,"GlobalID":"35LNF948897_001","Province":"Copperbelt","ProvinCode":102,"District":"Kalulushi","DistrCode":"102003","Source":"ZamStats","Type":"Religion","Name":"Chimbashi Seventh Day Adventist","Theme":"Religion","Data_year":"2010"}},{"type":"Feature","id":12,"geometry":{"type":"Point","coordinates":[27.874200821211,-12.7980700004301]},"properties":{"FID":12,"LAT":-12.7980700004,"LONG":27.8742008212,"GlobalID":"35LNF948850_001","Province":"Copperbelt","ProvinCode":102,"District":"Kalulushi","DistrCode":"102003","Source":"ZamStats","Type":"Religion","Name":"Kamaluko Seventh Day Adventist","Theme":"Religion","Data_year":"2010"}},{"type":"Feature","id":13,"geometry":{"type":"Point","coordinates":[27.8577995298245,-12.7907199996282]},"properties":{"FID":13,"LAT":-12.7907199996,"LONG":27.8577995298,"GlobalID":"35LNF931858_001","Province":"Copperbelt","ProvinCode":102,"District":"Kalulushi","DistrCode":"102003","Source":"ZamStats","Type":"Seasonal Settlement","Name":"Seasonal","Theme":"Built and Settled Environment","Data_year":"2010"}},{"type":"Feature","id":14,"geometry":{"type":"Point","coordinates":[27.8264007563898,-12.7719399996312]},"properties":{"FID":14,"LAT":-12.7719399996,"LONG":27.8264007564,"GlobalID":"35LNF896879_001","Province":"Copperbelt","ProvinCode":102,"District":"Kalulushi","DistrCode":"102003","Source":"ZamStats","Type":"Seasonal Settlement","Name":"Seasonal Huts","Theme":"Built and Settled Environment","Data_year":"2010"}},{"type":"Feature","id":15,"geometry":{"type":"Point","coordinates":[27.8759002682828,-12.8559700004151]},"properties":{"FID":15,"LAT":-12.8559700004,"LONG":27.8759002683,"GlobalID":"35LNF950786_002","Province":"Copperbelt","ProvinCode":102,"District":"Kalulushi","DistrCode":"102003","Source":"ZamStats","Type":"Religion","Name":"Seventh Day Adventist","Theme":"Religion","Data_year":"2010"}},{"type":"Feature","id":16,"geometry":{"type":"Point","coordinates":[27.8593006134326,-12.3274100000714]},"properties":{"FID":16,"LAT":-12.3274100001,"LONG":27.8593006134,"GlobalID":"35LNG934370_002","Province":"Copperbelt","ProvinCode":102,"District":"Chililabombwe","DistrCode":"102001","Source":"ZamStats","Type":"Religion","Name":"Seventh Day Adventist","Theme":"Religion","Data_year":"2010"}},{"type":"Feature","id":17,"geometry":{"type":"Point","coordinates":[27.546899795789,-12.5051599997341]},"properties":{"FID":17,"LAT":-12.5051599997,"LONG":27.5468997958,"GlobalID":"35LNG594175_001","Province":"Copperbelt","ProvinCode":102,"District":"Chingola","DistrCode":"102002","Source":"ZamStats","Type":"Religion","Name":"Seventh Day Adventist","Theme":"Religion","Data_year":"2010"}},{"type":"Feature","id":18,"geometry":{"type":"Point","coordinates":[27.5426006317138,-12.5032600002488]},"properties":{"FID":18,"LAT":-12.5032600002,"LONG":27.5426006317,"GlobalID":"35LNG589177_001","Province":"Copperbelt","ProvinCode":102,"District":"Chingola","DistrCode":"102002","Source":"ZamStats","Type":"Religion","Name":"Seventh Day Adventist","Theme":"Religion","Data_year":"2010"}},{"type":"Feature","id":19,"geometry":{"type":"Point","coordinates":[28.0361003876229,-12.5779599997541]},"properties":{"FID":19,"LAT":-12.5779599998,"LONG":28.0361003876,"GlobalID":"35LPG125093_001","Province":"Copperbelt","ProvinCode":102,"District":"Chingola","DistrCode":"102002","Source":"ZamStats","Type":"Religion","Name":"Mbai Seventh Day Adventist","Theme":"Religion","Data_year":"2010"}},{"type":"Feature","id":20,"geometry":{"type":"Point","coordinates":[28.5102996815851,-13.1935899998786]},"properties":{"FID":20,"LAT":-13.1935899999,"LONG":28.5102996825,"GlobalID":"35LPF636409_001","Province":"Copperbelt","ProvinCode":102,"District":"Luanshya","DistrCode":"102005","Source":"ZamStats","Type":"Seasonal Settlement","Name":"Seasonal Hut","Theme":"Built and Settled Environment","Data_year":"2010"}},{"type":"Feature","id":21,"geometry":{"type":"Point","coordinates":[27.2857721698498,-12.3850979498105]},"properties":{"FID":21,"LAT":-12.3850979498,"LONG":27.2857721698,"GlobalID":"35LNG310308_001","Province":"Copperbelt","ProvinCode":102,"District":"Lufwanyama","DistrCode":"102006","Source":"ZamStats","Type":"ZESCO","Name":"High Tension","Theme":"Landmark / Infrastructure","Data_year":"2010"}},{"type":"Feature","id":22,"geometry":{"type":"Point","coordinates":[27.0238861402332,-12.8850401700677]},"properties":{"FID":22,"LAT":-12.8850401701,"LONG":27.0238861402,"GlobalID":"35LNF025755_001","Province":"Copperbelt","ProvinCode":102,"District":"Lufwanyama","DistrCode":"102006","Source":"ZamStats","Type":"Religion","Name":"Seventh Day Adventist","Theme":"Religion","Data_year":"2010"}},{"type":"Feature","id":23,"geometry":{"type":"Point","coordinates":[26.9451289401485,-12.8530530601506]},"properties":{"FID":23,"LAT":-12.8530530602,"LONG":26.9451289401,"GlobalID":"35LMF940791_001","Province":"Copperbelt","ProvinCode":102,"District":"Lufwanyama","DistrCode":"102006","Source":"ZamStats","Type":"Seasonal Settlement","Name":"Seasonal Huts","Theme":"Built and Settled Environment","Data_year":"2010"}},{"type":"Feature","id":24,"geometry":{"type":"Point","coordinates":[27.174654119592,-12.9931376295979]},"properties":{"FID":24,"LAT":-12.9931376296,"LONG":27.1746541196,"GlobalID":"35LNF189636_001","Province":"Copperbelt","ProvinCode":102,"District":"Lufwanyama","DistrCode":"102006","Source":"ZamStats","Type":"Religion","Name":"Seventh Day Adventist","Theme":"Religion","Data_year":"2010"}},{"type":"Feature","id":25,"geometry":{"type":"Point","coordinates":[27.0626321598464,-12.8653080803036]},"properties":{"FID":25,"LAT":-12.8653080803,"LONG":27.0626321598,"GlobalID":"35LNF067777_002","Province":"Copperbelt","ProvinCode":102,"District":"Lufwanyama","DistrCode":"102006","Source":"ZamStats","Type":"Religion","Name":"Seventh Day Adventist","Theme":"Religion","Data_year":"2010"}},{"type":"Feature","id":26,"geometry":{"type":"Point","coordinates":[27.6869060801515,-12.5515221403344]},"properties":{"FID":26,"LAT":-12.5515221403,"LONG":27.6869060802,"GlobalID":"35LNG746123_001","Province":"Copperbelt","ProvinCode":102,"District":"Chingola","DistrCode":"102002","Source":"ZamStats","Type":"Religion","Name":"Seventh Day Adventist Kawama","Theme":"Religion","Data_year":"2010"}},{"type":"Feature","id":27,"geometry":{"type":"Point","coordinates":[27.6642260801695,-12.6256510199785]},"properties":{"FID":27,"LAT":-12.62565102,"LONG":27.6642260802,"GlobalID":"35LNG721041_001","Province":"Copperbelt","ProvinCode":102,"District":"Lufwanyama","DistrCode":"102006","Source":"ZamStats","Type":"Seasonal Settlement","Name":"Seasonal","Theme":"Built and Settled Environment","Data_year":"2010"}},{"type":"Feature","id":28,"geometry":{"type":"Point","coordinates":[27.6886613400488,-12.5778560696019]},"properties":{"FID":28,"LAT":-12.5778560696,"LONG":27.68866134,"GlobalID":"35LNG748094_001","Province":"Copperbelt","ProvinCode":102,"District":"Lufwanyama","DistrCode":"102006","Source":"ZamStats","Type":"Seasonal Settlement","Name":"Seasonal","Theme":"Built and Settled Environment","Data_year":"2010"}},{"type":"Feature","id":29,"geometry":{"type":"Point","coordinates":[27.3661320697393,-12.4047707796477]},"properties":{"FID":29,"LAT":-12.4047707796,"LONG":27.3661320697,"GlobalID":"35LNG397286_001","Province":"Copperbelt","ProvinCode":102,"District":"Lufwanyama","DistrCode":"102006","Source":"ZamStats","Type":"ZESCO","Name":"High Tensio W","Theme":"Landmark / Infrastructure","Data_year":"2010"}},{"type":"Feature","id":30,"geometry":{"type":"Point","coordinates":[27.3882693495509,-12.4249377203994]},"properties":{"FID":30,"LAT":-12.4249377204,"LONG":27.3882693496,"GlobalID":"35LNG421264_001","Province":"Copperbelt","ProvinCode":102,"District":"Lufwanyama","DistrCode":"102006","Source":"ZamStats","Type":"ZESCO","Name":"High Tension W","Theme":"Landmark / Infrastructure","Data_year":"2010"}},{"type":"Feature","id":31,"geometry":{"type":"Point","coordinates":[28.0437246195956,-12.9936179098386]},"properties":{"FID":31,"LAT":-12.9936179098,"LONG":28.0437246196,"GlobalID":"35LPF131633_001","Province":"Copperbelt","ProvinCode":102,"District":"Lufwanyama","DistrCode":"102006","Source":"ZamStats","Type":"Religion","Name":"Chibwabwa Seventh Day Adventist","Theme":"Religion","Data_year":"2010"}},{"type":"Feature","id":32,"geometry":{"type":"Point","coordinates":[28.0500718196588,-12.9526710603211]},"properties":{"FID":32,"LAT":-12.9526710603,"LONG":28.0500718197,"GlobalID":"35LPF138678_002","Province":"Copperbelt","ProvinCode":102,"District":"Lufwanyama","DistrCode":"102006","Source":"ZamStats","Type":"Religion","Name":"Kandole Seventh Day Adventist","Theme":"Religion","Data_year":"2010"}},{"type":"Feature","id":33,"geometry":{"type":"Point","coordinates":[28.1001713799053,-12.9813687703524]},"properties":{"FID":33,"LAT":-12.9813687704,"LONG":28.1001713799,"GlobalID":"35LPF193646_001","Province":"Copperbelt","ProvinCode":102,"District":"Lufwanyama","DistrCode":"102006","Source":"ZamStats","Type":"Religion","Name":"Seventh Day Adventist","Theme":"Religion","Data_year":"2010"}},{"type":"Feature","id":34,"geometry":{"type":"Point","coordinates":[27.6564048400114,-13.0502870401148]},"properties":{"FID":34,"LAT":-13.0502870401,"LONG":27.65640484,"GlobalID":"35LNF711572_001","Province":"Copperbelt","ProvinCode":102,"District":"Lufwanyama","DistrCode":"102006","Source":"ZamStats","Type":"Section","Name":"Chandamali Section","Theme":"Built and Settled Environment","Data_year":"2010"}},{"type":"Feature","id":35,"geometry":{"type":"Point","coordinates":[27.7618444098916,-13.0688682098999]},"properties":{"FID":35,"LAT":-13.0688682099,"LONG":27.7618444099,"GlobalID":"35LNF825551_001","Province":"Copperbelt","ProvinCode":102,"District":"Lufwanyama","DistrCode":"102006","Source":"ZamStats","Type":"Religion","Name":"Seventh Day Adventist Luf","Theme":"Religion","Data_year":"2010"}},{"type":"Feature","id":36,"geometry":{"type":"Point","coordinates":[27.7994442003896,-13.0134142102975]},"properties":{"FID":36,"LAT":-13.0134142103,"LONG":27.7994442004,"GlobalID":"35LNF866612_001","Province":"Copperbelt","ProvinCode":102,"District":"Lufwanyama","DistrCode":"102006","Source":"ZamStats","Type":"Religion","Name":"Seventh Day Adventist Mukutuma","Theme":"Religion","Data_year":"2010"}},{"type":"Feature","id":37,"geometry":{"type":"Point","coordinates":[27.9353434302552,-12.9343226602625]},"properties":{"FID":37,"LAT":-12.9343226603,"LONG":27.9353434303,"GlobalID":"35LPF014699_001","Province":"Copperbelt","ProvinCode":102,"District":"Lufwanyama","DistrCode":"102006","Source":"ZamStats","Type":"Religion","Name":"Mikuta Seventh Day Adventist","Theme":"Religion","Data_year":"2010"}},{"type":"Feature","id":38,"geometry":{"type":"Point","coordinates":[28.0468981796074,-12.9140453196358]},"properties":{"FID":38,"LAT":-12.9140453196,"LONG":28.0468981796,"GlobalID":"35LPF135721_001","Province":"Copperbelt","ProvinCode":102,"District":"Lufwanyama","DistrCode":"102006","Source":"ZamStats","Type":"Religion","Name":"Seventh Day Adventist","Theme":"Religion","Data_year":"2010"}},{"type":"Feature","id":39,"geometry":{"type":"Point","coordinates":[27.8976048302987,-12.8957769601386]},"properties":{"FID":39,"LAT":-12.8957769601,"LONG":27.8976048303,"GlobalID":"35LNF973742_001","Province":"Copperbelt","ProvinCode":102,"District":"Lufwanyama","DistrCode":"102006","Source":"ZamStats","Type":"Religion","Name":"Seventh Day Adventist Bowas","Theme":"Religion","Data_year":"2010"}},{"type":"Feature","id":40,"geometry":{"type":"Point","coordinates":[28.0265766795702,-12.9266698901033]},"properties":{"FID":40,"LAT":-12.9266698901,"LONG":28.0265766796,"GlobalID":"35LPF113707_002","Province":"Copperbelt","ProvinCode":102,"District":"Lufwanyama","DistrCode":"102006","Source":"ZamStats","Type":"Religion","Name":"Seventh Day Adventist","Theme":"Religion","Data_year":"2010"}},{"type":"Feature","id":41,"geometry":{"type":"Point","coordinates":[27.9973664998641,-12.9289104601496]},"properties":{"FID":41,"LAT":-12.9289104601,"LONG":27.9973664999,"GlobalID":"35LPF081705_001","Province":"Copperbelt","ProvinCode":102,"District":"Lufwanyama","DistrCode":"102006","Source":"ZamStats","Type":"Religion","Name":"Seventh Day Adventist","Theme":"Religion","Data_year":"2010"}},{"type":"Feature","id":42,"geometry":{"type":"Point","coordinates":[28.0419156395951,-12.8861077696578]},"properties":{"FID":42,"LAT":-12.8861077697,"LONG":28.0419156396,"GlobalID":"35LPF130752_001","Province":"Copperbelt","ProvinCode":102,"District":"Lufwanyama","DistrCode":"102006","Source":"ZamStats","Type":"Religion","Name":"Seventh Day Adventist","Theme":"Religion","Data_year":"2010"}},{"type":"Feature","id":43,"geometry":{"type":"Point","coordinates":[29.0864339701516,-13.3942502601413]},"properties":{"FID":43,"LAT":-13.3942502601,"LONG":29.0864339702,"GlobalID":"35LQF259183_001","Province":"Central","ProvinCode":101,"District":"Mkushi","DistrCode":"101008","Source":"ZamStats","Type":"Religion","Name":"Seventh Day Adventist","Theme":"Religion","Data_year":"2010"}},{"type":"Feature","id":44,"geometry":{"type":"Point","coordinates":[28.7882008202117,-13.0687434001877]},"properties":{"FID":44,"LAT":-13.0687434002,"LONG":28.7882008202,"GlobalID":"35LPF938545_001","Province":"Copperbelt","ProvinCode":102,"District":"Masaiti","DistrCode":"102007","Source":"ZamStats","Type":"Religion","Name":"Seventh Day Adventist","Theme":"Religion","Data_year":"2010"}},{"type":"Feature","id":45,"geometry":{"type":"Point","coordinates":[28.7152634298635,-13.2315198802382]},"properties":{"FID":45,"LAT":-13.2315198802,"LONG":28.7152634299,"GlobalID":"35LPF858366_001","Province":"Copperbelt","ProvinCode":102,"District":"Masaiti","DistrCode":"102007","Source":"ZamStats","Type":"Religion","Name":"Misasa Seventh Day Adventist","Theme":"Religion","Data_year":"2010"}},{"type":"Feature","id":46,"geometry":{"type":"Point","coordinates":[28.8265953901652,-13.5118613499213]},"properties":{"FID":46,"LAT":-13.5118613499,"LONG":28.8265953902,"GlobalID":"35LPF976055_001","Province":"Copperbelt","ProvinCode":102,"District":"Masaiti","DistrCode":"102007","Source":"ZamStats","Type":"Religion","Name":"Ishitwe Seventh Day Adventist","Theme":"Religion","Data_year":"2010"}},{"type":"Feature","id":47,"geometry":{"type":"Point","coordinates":[28.5735013900771,-13.6392680397881]},"properties":{"FID":47,"LAT":-13.6392680398,"LONG":28.5735013901,"GlobalID":"35LPE702916_001","Province":"Copperbelt","ProvinCode":102,"District":"Masaiti","DistrCode":"102007","Source":"ZamStats","Type":"Religion","Name":"Kasamwa Seventh Day Adventist","Theme":"Religion","Data_year":"2010"}},{"type":"Feature","id":48,"geometry":{"type":"Point","coordinates":[28.6192099996418,-13.6024203496194]},"properties":{"FID":48,"LAT":-13.6024203496,"LONG":28.6192099996,"GlobalID":"35LPE751956_002","Province":"Copperbelt","ProvinCode":102,"District":"Masaiti","DistrCode":"102007","Source":"ZamStats","Type":"Religion","Name":"Luansobe Seventh Day Adventist","Theme":"Religion","Data_year":"2010"}},{"type":"Feature","id":49,"geometry":{"type":"Point","coordinates":[28.7991871496673,-13.4831972502528]},"properties":{"FID":49,"LAT":-13.4831972503,"LONG":28.7991871497,"GlobalID":"35LPF947087_002","Province":"Copperbelt","ProvinCode":102,"District":"Masaiti","DistrCode":"102007","Source":"ZamStats","Type":"Religion","Name":"Silangwa Seventh Day Adventist","Theme":"Religion","Data_year":"2010"}},{"type":"Feature","id":50,"geometry":{"type":"Point","coordinates":[28.6275151299193,-13.6947094596738]},"properties":{"FID":50,"LAT":-13.6947094597,"LONG":28.6275151299,"GlobalID":"35LPE760854_001","Province":"Copperbelt","ProvinCode":102,"District":"Masaiti","DistrCode":"102007","Source":"ZamStats","Type":"Commercial","Name":"Chabilinga Shop","Theme":"Built and Settled Environment","Data_year":"2010"}},{"type":"Feature","id":51,"geometry":{"type":"Point","coordinates":[28.6799799700996,-13.5590599301716]},"properties":{"FID":51,"LAT":-13.5590599302,"LONG":28.6799799701,"GlobalID":"35LPF817004_001","Province":"Copperbelt","ProvinCode":102,"District":"Masaiti","DistrCode":"102007","Source":"ZamStats","Type":"Religion","Name":"Chilese Seventh Day Adventist","Theme":"Religion","Data_year":"2010"}},{"type":"Feature","id":52,"geometry":{"type":"Point","coordinates":[28.6815819198698,-13.592130060354]},"properties":{"FID":52,"LAT":-13.5921300604,"LONG":28.6815819199,"GlobalID":"35LPE819967_001","Province":"Copperbelt","ProvinCode":102,"District":"Masaiti","DistrCode":"102007","Source":"ZamStats","Type":"Religion","Name":"Kantulo Seventh Day Adventist","Theme":"Religion","Data_year":"2010"}},{"type":"Feature","id":53,"geometry":{"type":"Point","coordinates":[28.635390510164,-13.6938038801449]},"properties":{"FID":53,"LAT":-13.6938038801,"LONG":28.6353905102,"GlobalID":"35LPE768855_001","Province":"Copperbelt","ProvinCode":102,"District":"Masaiti","DistrCode":"102007","Source":"ZamStats","Type":"Religion","Name":"Seventh Day Adventist","Theme":"Religion","Data_year":"2010"}},{"type":"Feature","id":54,"geometry":{"type":"Point","coordinates":[28.634779050313,-13.5771630797123]},"properties":{"FID":54,"LAT":-13.5771630797,"LONG":28.6347790503,"GlobalID":"35LPE768984_001","Province":"Copperbelt","ProvinCode":102,"District":"Masaiti","DistrCode":"102007","Source":"ZamStats","Type":"Commercial","Name":"Twambalepo Shop","Theme":"Built and Settled Environment","Data_year":"2010"}},{"type":"Feature","id":55,"geometry":{"type":"Point","coordinates":[28.5419722698044,-13.6220050899629]},"properties":{"FID":55,"LAT":-13.62200509,"LONG":28.5419722698,"GlobalID":"35LPE668935_001","Province":"Copperbelt","ProvinCode":102,"District":"Masaiti","DistrCode":"102007","Source":"ZamStats","Type":"Religion","Name":"Kwesha Seventh Day Adventist","Theme":"Religion","Data_year":"2010"}},{"type":"Feature","id":56,"geometry":{"type":"Point","coordinates":[28.7498383596526,-13.4977096802575]},"properties":{"FID":56,"LAT":-13.4977096803,"LONG":28.7498383597,"GlobalID":"35LPF893071_001","Province":"Copperbelt","ProvinCode":102,"District":"Masaiti","DistrCode":"102007","Source":"ZamStats","Type":"Religion","Name":"Milopa Seventh Day Adventist","Theme":"Religion","Data_year":"2010"}},{"type":"Feature","id":57,"geometry":{"type":"Point","coordinates":[28.6442781798941,-13.5511968697397]},"properties":{"FID":57,"LAT":-13.5511968697,"LONG":28.6442781799,"GlobalID":"35LPF779013_001","Province":"Copperbelt","ProvinCode":102,"District":"Masaiti","DistrCode":"102007","Source":"ZamStats","Type":"Religion","Name":"Miswa Seventh Day Adventist","Theme":"Religion","Data_year":"2010"}},{"type":"Feature","id":58,"geometry":{"type":"Point","coordinates":[28.6653450902038,-13.6831503996711]},"properties":{"FID":58,"LAT":-13.6831503997,"LONG":28.6653450902,"GlobalID":"35LPE801866_002","Province":"Copperbelt","ProvinCode":102,"District":"Masaiti","DistrCode":"102007","Source":"ZamStats","Type":"Religion","Name":"Seventh Day Adventist","Theme":"Religion","Data_year":"2010"}},{"type":"Feature","id":59,"geometry":{"type":"Point","coordinates":[28.5261182401647,-13.600172409629]},"properties":{"FID":59,"LAT":-13.6001724096,"LONG":28.5261182402,"GlobalID":"35LPE651959_001","Province":"Copperbelt","ProvinCode":102,"District":"Masaiti","DistrCode":"102007","Source":"ZamStats","Type":"Religion","Name":"Seventh Day Adventist","Theme":"Religion","Data_year":"2010"}},{"type":"Feature","id":60,"geometry":{"type":"Point","coordinates":[28.9412134696259,-13.5065416900469]},"properties":{"FID":60,"LAT":-13.50654169,"LONG":28.9412134696,"GlobalID":"35LQF101060_001","Province":"Copperbelt","ProvinCode":102,"District":"Masaiti","DistrCode":"102007","Source":"ZamStats","Type":"Religion","Name":"Kantonte Seventh Day Adventist","Theme":"Religion","Data_year":"2010"}},{"type":"Feature","id":61,"geometry":{"type":"Point","coordinates":[28.5970023200011,-13.6637333900838]},"properties":{"FID":61,"LAT":-13.6637333901,"LONG":28.59700232,"GlobalID":"35LPE727888_001","Province":"Copperbelt","ProvinCode":102,"District":"Masaiti","DistrCode":"102007","Source":"ZamStats","Type":"Religion","Name":"Mukuwe Seventh Day Adventist","Theme":"Religion","Data_year":"2010"}},{"type":"Feature","id":62,"geometry":{"type":"Point","coordinates":[28.8594824498552,-13.5325750398062]},"properties":{"FID":62,"LAT":-13.5325750398,"LONG":28.8594824499,"GlobalID":"35LQF012032_001","Province":"Copperbelt","ProvinCode":102,"District":"Masaiti","DistrCode":"102007","Source":"ZamStats","Type":"Religion","Name":"Musongwa Seventh Day Adventist","Theme":"Religion","Data_year":"2010"}},{"type":"Feature","id":63,"geometry":{"type":"Point","coordinates":[28.8777591901346,-13.5104397798719]},"properties":{"FID":63,"LAT":-13.5104397799,"LONG":28.8777591901,"GlobalID":"35LQF032056_001","Province":"Copperbelt","ProvinCode":102,"District":"Masaiti","DistrCode":"102007","Source":"ZamStats","Type":"Religion","Name":"Shokoto Seventh Day Adventist","Theme":"Religion","Data_year":"2010"}},{"type":"Feature","id":64,"geometry":{"type":"Point","coordinates":[28.7708306702992,-13.2393648400153]},"properties":{"FID":64,"LAT":-13.23936484,"LONG":28.7708306703,"GlobalID":"35LPF918357_001","Province":"Copperbelt","ProvinCode":102,"District":"Masaiti","DistrCode":"102007","Source":"ZamStats","Type":"Religion","Name":"Chonwe Seventh Day Adventist","Theme":"Religion","Data_year":"2010"}},{"type":"Feature","id":65,"geometry":{"type":"Point","coordinates":[28.7658152699588,-13.288024219642]},"properties":{"FID":65,"LAT":-13.2880242196,"LONG":28.76581527,"GlobalID":"35LPF912303_001","Province":"Copperbelt","ProvinCode":102,"District":"Masaiti","DistrCode":"102007","Source":"ZamStats","Type":"Religion","Name":"Kafwaya Seventh Day Adventist","Theme":"Religion","Data_year":"2010"}},{"type":"Feature","id":66,"geometry":{"type":"Point","coordinates":[28.7808231499685,-13.1164438902733]},"properties":{"FID":66,"LAT":-13.1164438903,"LONG":28.78082315,"GlobalID":"35LPF930493_001","Province":"Copperbelt","ProvinCode":102,"District":"Masaiti","DistrCode":"102007","Source":"ZamStats","Type":"Religion","Name":"Mutongolo Seventh Day Adventist","Theme":"Religion","Data_year":"2010"}},{"type":"Feature","id":67,"geometry":{"type":"Point","coordinates":[28.7454995498644,-13.2118320497093]},"properties":{"FID":67,"LAT":-13.2118320497,"LONG":28.7454995499,"GlobalID":"35LPF891387_001","Province":"Copperbelt","ProvinCode":102,"District":"Masaiti","DistrCode":"102007","Source":"ZamStats","Type":"Religion","Name":"Paka Seventh Day Adventist","Theme":"Religion","Data_year":"2010"}},{"type":"Feature","id":68,"geometry":{"type":"Point","coordinates":[28.7605469101119,-13.1347306103294]},"properties":{"FID":68,"LAT":-13.1347306103,"LONG":28.7605469101,"GlobalID":"35LPF908472_001","Province":"Copperbelt","ProvinCode":102,"District":"Masaiti","DistrCode":"102007","Source":"ZamStats","Type":"Religion","Name":"Washa Seventh Day Adventist","Theme":"Religion","Data_year":"2010"}},{"type":"Feature","id":69,"geometry":{"type":"Point","coordinates":[28.9127199398734,-13.2651899796338]},"properties":{"FID":69,"LAT":-13.2651899796,"LONG":28.9127199399,"GlobalID":"35LQF072327_001","Province":"Copperbelt","ProvinCode":102,"District":"Masaiti","DistrCode":"102007","Source":"ZamStats","Type":"Religion","Name":"Kaleya B Seventh Day Adventist","Theme":"Religion","Data_year":"2010"}},{"type":"Feature","id":70,"geometry":{"type":"Point","coordinates":[28.8978454203299,-13.2361964798836]},"properties":{"FID":70,"LAT":-13.2361964799,"LONG":28.8978454203,"GlobalID":"35LQF056359_001","Province":"Copperbelt","ProvinCode":102,"District":"Masaiti","DistrCode":"102007","Source":"ZamStats","Type":"Religion","Name":"Seventh Day Adventist","Theme":"Religion","Data_year":"2010"}},{"type":"Feature","id":71,"geometry":{"type":"Point","coordinates":[28.5598048601063,-13.5118501200869]},"properties":{"FID":71,"LAT":-13.5118501201,"LONG":28.5598048601,"GlobalID":"35LPF688057_001","Province":"Copperbelt","ProvinCode":102,"District":"Masaiti","DistrCode":"102007","Source":"ZamStats","Type":"Religion","Name":"Kandulwe Seventh Day Adventist","Theme":"Religion","Data_year":"2010"}},{"type":"Feature","id":72,"geometry":{"type":"Point","coordinates":[28.4076508501067,-13.2611170499119]},"properties":{"FID":72,"LAT":-13.2611170499,"LONG":28.4076508501,"GlobalID":"35LPF525335_001","Province":"Copperbelt","ProvinCode":102,"District":"Masaiti","DistrCode":"102007","Source":"ZamStats","Type":"Religion","Name":"Seventh Day Adventist","Theme":"Religion","Data_year":"2010"}},{"type":"Feature","id":73,"geometry":{"type":"Point","coordinates":[28.2190602102605,-13.1807838796723]},"properties":{"FID":73,"LAT":-13.1807838797,"LONG":28.2190602103,"GlobalID":"35LPF321425_001","Province":"Copperbelt","ProvinCode":102,"District":"Masaiti","DistrCode":"102007","Source":"ZamStats","Type":"Religion","Name":"Seventh Day Adventist Kamisenga","Theme":"Religion","Data_year":"2010"}},{"type":"Feature","id":74,"geometry":{"type":"Point","coordinates":[28.4102301300165,-13.3387934897277]},"properties":{"FID":74,"LAT":-13.3387934897,"LONG":28.41023013,"GlobalID":"35LPF527249_001","Province":"Copperbelt","ProvinCode":102,"District":"Masaiti","DistrCode":"102007","Source":"ZamStats","Type":"Religion","Name":"Seventh Day Adventist Camp Site","Theme":"Religion","Data_year":"2010"}},{"type":"Feature","id":75,"geometry":{"type":"Point","coordinates":[28.4317033099599,-13.2409518700327]},"properties":{"FID":75,"LAT":-13.24095187,"LONG":28.43170331,"GlobalID":"35LPF551357_001","Province":"Copperbelt","ProvinCode":102,"District":"Masaiti","DistrCode":"102007","Source":"ZamStats","Type":"Religion","Name":"Fipashi Seventh Day Adventist","Theme":"Religion","Data_year":"2010"}},{"type":"Feature","id":76,"geometry":{"type":"Point","coordinates":[28.6080774898843,-13.2112825297649]},"properties":{"FID":76,"LAT":-13.2112825298,"LONG":28.6080774899,"GlobalID":"35LPF742389_001","Province":"Copperbelt","ProvinCode":102,"District":"Masaiti","DistrCode":"102007","Source":"ZamStats","Type":"Religion","Name":"Mpyana Seventh Day Adventist","Theme":"Religion","Data_year":"2010"}},{"type":"Feature","id":77,"geometry":{"type":"Point","coordinates":[28.5041679599834,-13.2382282498338]},"properties":{"FID":77,"LAT":-13.2382282498,"LONG":28.50416796,"GlobalID":"35LPF629360_002","Province":"Copperbelt","ProvinCode":102,"District":"Masaiti","DistrCode":"102007","Source":"ZamStats","Type":"Religion","Name":"Saka Seventh Day Adventist","Theme":"Religion","Data_year":"2010"}},{"type":"Feature","id":78,"geometry":{"type":"Point","coordinates":[28.6230742299917,-13.2725744397586]},"properties":{"FID":78,"LAT":-13.2725744398,"LONG":28.62307423,"GlobalID":"35LPF758321_001","Province":"Copperbelt","ProvinCode":102,"District":"Masaiti","DistrCode":"102007","Source":"ZamStats","Type":"Religion","Name":"Seventh Day Adventist","Theme":"Religion","Data_year":"2010"}},{"type":"Feature","id":79,"geometry":{"type":"Point","coordinates":[28.2168407437054,-12.5356399996862]},"properties":{"FID":79,"LAT":-12.5356399997,"LONG":28.2168407437,"GlobalID":"35LPG322139_001","Province":"Copperbelt","ProvinCode":102,"District":"Mufulira","DistrCode":"102009","Source":"ZamStats","Type":"Religion","Name":"Kankoyo Seventh Day Adventist","Theme":"Religion","Data_year":"2010"}},{"type":"Feature","id":80,"geometry":{"type":"Point","coordinates":[28.2031593322374,-12.5222900000834]},"properties":{"FID":80,"LAT":-12.5222900001,"LONG":28.2031593322,"GlobalID":"35LPG307153_002","Province":"Copperbelt","ProvinCode":102,"District":"Mufulira","DistrCode":"102009","Source":"ZamStats","Type":"Religion","Name":"Seventh Day Adventist","Theme":"Religion","Data_year":"2010"}},{"type":"Feature","id":81,"geometry":{"type":"Point","coordinates":[28.288650512811,-12.5054099995718]},"properties":{"FID":81,"LAT":-12.5054099996,"LONG":28.2886505128,"GlobalID":"35LPG400172_001","Province":"Copperbelt","ProvinCode":102,"District":"Mufulira","DistrCode":"102009","Source":"ZamStats","Type":"Religion","Name":"Seventh Day Adventist","Theme":"Religion","Data_year":"2010"}},{"type":"Feature","id":82,"geometry":{"type":"Point","coordinates":[28.2425594332713,-12.5761200003377]},"properties":{"FID":82,"LAT":-12.5761200003,"LONG":28.2425594333,"GlobalID":"35LPG349094_001","Province":"Copperbelt","ProvinCode":102,"District":"Mufulira","DistrCode":"102009","Source":"ZamStats","Type":"Block","Name":"Ts Block","Theme":"Built and Settled Environment","Data_year":"2010"}},{"type":"Feature","id":83,"geometry":{"type":"Point","coordinates":[28.2307395932577,-12.5490199997731]},"properties":{"FID":83,"LAT":-12.5490199998,"LONG":28.2307395933,"GlobalID":"35LPG337124_001","Province":"Copperbelt","ProvinCode":102,"District":"Mufulira","DistrCode":"102009","Source":"ZamStats","Type":"Section","Name":"Section","Theme":"Built and Settled Environment","Data_year":"2010"}},{"type":"Feature","id":84,"geometry":{"type":"Point","coordinates":[28.2297801973983,-12.5515100003861]},"properties":{"FID":84,"LAT":-12.5515100004,"LONG":28.2297801974,"GlobalID":"35LPG336121_001","Province":"Copperbelt","ProvinCode":102,"District":"Mufulira","DistrCode":"102009","Source":"ZamStats","Type":"Section","Name":"Section","Theme":"Built and Settled Environment","Data_year":"2010"}},{"type":"Feature","id":85,"geometry":{"type":"Point","coordinates":[28.2331695560302,-12.5502800003217]},"properties":{"FID":85,"LAT":-12.5502800003,"LONG":28.233169556,"GlobalID":"35LPG339122_001","Province":"Copperbelt","ProvinCode":102,"District":"Mufulira","DistrCode":"102009","Source":"ZamStats","Type":"Section","Name":"Section","Theme":"Built and Settled Environment","Data_year":"2010"}},{"type":"Feature","id":86,"geometry":{"type":"Point","coordinates":[28.2268905641483,-12.5462600001988]},"properties":{"FID":86,"LAT":-12.5462600002,"LONG":28.2268905641,"GlobalID":"35LPG332127_001","Province":"Copperbelt","ProvinCode":102,"District":"Mufulira","DistrCode":"102009","Source":"ZamStats","Type":"Section","Name":"Section","Theme":"Built and Settled Environment","Data_year":"2010"}},{"type":"Feature","id":87,"geometry":{"type":"Point","coordinates":[28.2355308528666,-12.5516600001089]},"properties":{"FID":87,"LAT":-12.5516600001,"LONG":28.2355308529,"GlobalID":"35LPG342121_001","Province":"Copperbelt","ProvinCode":102,"District":"Mufulira","DistrCode":"102009","Source":"ZamStats","Type":"Section","Name":"Section","Theme":"Built and Settled Environment","Data_year":"2010"}},{"type":"Feature","id":88,"geometry":{"type":"Point","coordinates":[28.2374000550685,-12.5514500003172]},"properties":{"FID":88,"LAT":-12.5514500003,"LONG":28.2374000551,"GlobalID":"35LPG344121_001","Province":"Copperbelt","ProvinCode":102,"District":"Mufulira","DistrCode":"102009","Source":"ZamStats","Type":"Section","Name":"Section","Theme":"Built and Settled Environment","Data_year":"2010"}},{"type":"Feature","id":89,"geometry":{"type":"Point","coordinates":[28.2351207737048,-12.5535399995713]},"properties":{"FID":89,"LAT":-12.5535399996,"LONG":28.2351207737,"GlobalID":"35LPG341119_002","Province":"Copperbelt","ProvinCode":102,"District":"Mufulira","DistrCode":"102009","Source":"ZamStats","Type":"Section","Name":"Section","Theme":"Built and Settled Environment","Data_year":"2010"}},{"type":"Feature","id":90,"geometry":{"type":"Point","coordinates":[28.2328090663854,-12.5520999997152]},"properties":{"FID":90,"LAT":-12.5520999997,"LONG":28.2328090664,"GlobalID":"35LPG339120_001","Province":"Copperbelt","ProvinCode":102,"District":"Mufulira","DistrCode":"102009","Source":"ZamStats","Type":"Section","Name":"Section","Theme":"Built and Settled Environment","Data_year":"2010"}},{"type":"Feature","id":91,"geometry":{"type":"Point","coordinates":[28.2343997953143,-12.5483300003292]},"properties":{"FID":91,"LAT":-12.5483300003,"LONG":28.2343997953,"GlobalID":"35LPG341124_001","Province":"Copperbelt","ProvinCode":102,"District":"Mufulira","DistrCode":"102009","Source":"ZamStats","Type":"Section","Name":"Section","Theme":"Built and Settled Environment","Data_year":"2010"}},{"type":"Feature","id":92,"geometry":{"type":"Point","coordinates":[28.237840652724,-12.5472400004256]},"properties":{"FID":92,"LAT":-12.5472400004,"LONG":28.2378406527,"GlobalID":"35LPG344126_001","Province":"Copperbelt","ProvinCode":102,"District":"Mufulira","DistrCode":"102009","Source":"ZamStats","Type":"Section","Name":"Section","Theme":"Built and Settled Environment","Data_year":"2010"}},{"type":"Feature","id":93,"geometry":{"type":"Point","coordinates":[28.2296600335837,-12.54519999988]},"properties":{"FID":93,"LAT":-12.5451999999,"LONG":28.2296600345,"GlobalID":"35LPG335128_001","Province":"Copperbelt","ProvinCode":102,"District":"Mufulira","DistrCode":"102009","Source":"ZamStats","Type":"Section","Name":"Section","Theme":"Built and Settled Environment","Data_year":"2010"}},{"type":"Feature","id":94,"geometry":{"type":"Point","coordinates":[28.2323093410033,-12.5464900000134]},"properties":{"FID":94,"LAT":-12.54649,"LONG":28.232309341,"GlobalID":"35LPG338127_001","Province":"Copperbelt","ProvinCode":102,"District":"Mufulira","DistrCode":"102009","Source":"ZamStats","Type":"Section","Name":"Section","Theme":"Built and Settled Environment","Data_year":"2010"}},{"type":"Feature","id":95,"geometry":{"type":"Point","coordinates":[28.2288703919551,-12.5482199997531]},"properties":{"FID":95,"LAT":-12.5482199998,"LONG":28.228870392,"GlobalID":"35LPG335125_001","Province":"Copperbelt","ProvinCode":102,"District":"Mufulira","DistrCode":"102009","Source":"ZamStats","Type":"Section","Name":"Section","Theme":"Built and Settled Environment","Data_year":"2010"}},{"type":"Feature","id":96,"geometry":{"type":"Point","coordinates":[28.2268905641483,-12.5501699997457]},"properties":{"FID":96,"LAT":-12.5501699997,"LONG":28.2268905641,"GlobalID":"35LPG332122_001","Province":"Copperbelt","ProvinCode":102,"District":"Mufulira","DistrCode":"102009","Source":"ZamStats","Type":"Section","Name":"Section","Theme":"Built and Settled Environment","Data_year":"2010"}},{"type":"Feature","id":97,"geometry":{"type":"Point","coordinates":[28.229669570894,-12.5427199997281]},"properties":{"FID":97,"LAT":-12.5427199997,"LONG":28.2296695709,"GlobalID":"35LPG335131_001","Province":"Copperbelt","ProvinCode":102,"District":"Mufulira","DistrCode":"102009","Source":"ZamStats","Type":"Section","Name":"Section","Theme":"Built and Settled Environment","Data_year":"2010"}},{"type":"Feature","id":98,"geometry":{"type":"Point","coordinates":[28.2319202421255,-12.5441500000225]},"properties":{"FID":98,"LAT":-12.54415,"LONG":28.2319202421,"GlobalID":"35LPG338129_001","Province":"Copperbelt","ProvinCode":102,"District":"Mufulira","DistrCode":"102009","Source":"ZamStats","Type":"Section","Name":"Section","Theme":"Built and Settled Environment","Data_year":"2010"}},{"type":"Feature","id":99,"geometry":{"type":"Point","coordinates":[28.2449500003423,-12.5812900004331]},"properties":{"FID":99,"LAT":-12.5812900004,"LONG":28.2449500003,"GlobalID":"35LPG352088_001","Province":"Copperbelt","ProvinCode":102,"District":"Mufulira","DistrCode":"102009","Source":"ZamStats","Type":"Block","Name":"Ts Block C","Theme":"Built and Settled Environment","Data_year":"2010"}},{"type":"Feature","id":100,"geometry":{"type":"Point","coordinates":[28.2881099995769,-12.6543000002447]},"properties":{"FID":100,"LAT":-12.6543000002,"LONG":28.2881099996,"GlobalID":"35LPG398007_001","Province":"Copperbelt","ProvinCode":102,"District":"Mufulira","DistrCode":"102009","Source":"ZamStats","Type":"Religion","Name":"Mutundu Seventh Day Adventist","Theme":"Religion","Data_year":"2010"}},{"type":"Feature","id":101,"geometry":{"type":"Point","coordinates":[28.2687699998357,-12.4312400002258]},"properties":{"FID":101,"LAT":-12.4312400002,"LONG":28.2687699998,"GlobalID":"35LPG379254_001","Province":"Copperbelt","ProvinCode":102,"District":"Mufulira","DistrCode":"102009","Source":"ZamStats","Type":"Seasonal Settlement","Name":"Seasonal Hut","Theme":"Built and Settled Environment","Data_year":"2010"}},{"type":"Feature","id":102,"geometry":{"type":"Point","coordinates":[28.2180700000305,-12.5750899996037]},"properties":{"FID":102,"LAT":-12.5750899996,"LONG":28.21807,"GlobalID":"35LPG323095_001","Province":"Copperbelt","ProvinCode":102,"District":"Mufulira","DistrCode":"102009","Source":"ZamStats","Type":"Religion","Name":"Kawama Seventh Day Adventist","Theme":"Religion","Data_year":"2010"}},{"type":"Feature","id":103,"geometry":{"type":"Point","coordinates":[32.8714849296858,-11.8425596502076]},"properties":{"FID":103,"LAT":-11.8425596502,"LONG":32.8714849297,"GlobalID":"36LVM860908_001","Province":"Muchinga","ProvinCode":106,"District":"Chama","DistrCode":"106001","Source":"ZamStats","Type":"Seasonal Settlement","Name":"Ngwee Seasonal Hut","Theme":"Built and Settled Environment","Data_year":"2010"}},{"type":"Feature","id":104,"geometry":{"type":"Point","coordinates":[32.6658251304255,-13.2618300198395]},"properties":{"FID":104,"LAT":-13.2618300198,"LONG":32.6658251304,"GlobalID":"36LVL637338_001","Province":"Eastern","ProvinCode":103,"District":"Chipangali","DistrCode":"103011","Source":"ZamStats","Type":"Religion","Name":"Musopa Seventh Day Adventist","Theme":"Religion","Data_year":"2010"}},{"type":"Feature","id":105,"geometry":{"type":"Point","coordinates":[32.6482078800897,-13.62336815012]},"properties":{"FID":105,"LAT":-13.6233681501,"LONG":32.6482078801,"GlobalID":"36LVK619938_001","Province":"Eastern","ProvinCode":103,"District":"Chipata","DistrCode":"103002","Source":"ZamStats","Type":"Section","Name":"Anoya Zulu Sec","Theme":"Built and Settled Environment","Data_year":"2010"}},{"type":"Feature","id":106,"geometry":{"type":"Point","coordinates":[32.6250604997423,-13.62949214025]},"properties":{"FID":106,"LAT":-13.6294921403,"LONG":32.6250604997,"GlobalID":"36LVK594932_001","Province":"Eastern","ProvinCode":103,"District":"Chipata","DistrCode":"103002","Source":"ZamStats","Type":"Commercial","Name":"Ally  Son Shop","Theme":"Built and Settled Environment","Data_year":"2010"}},{"type":"Feature","id":107,"geometry":{"type":"Point","coordinates":[32.5638600301164,-13.63323181]},"properties":{"FID":107,"LAT":-13.63323181,"LONG":32.5638600301,"GlobalID":"36LVK528927_001","Province":"Eastern","ProvinCode":103,"District":"Chipata","DistrCode":"103002","Source":"ZamStats","Type":"Religion","Name":"Seventh Day Adventist","Theme":"Religion","Data_year":"2010"}},{"type":"Feature","id":108,"geometry":{"type":"Point","coordinates":[32.6677351996198,-13.916392530191]},"properties":{"FID":108,"LAT":-13.9163925302,"LONG":32.6677351996,"GlobalID":"36LVK641614_001","Province":"Eastern","ProvinCode":103,"District":"Chipata","DistrCode":"103002","Source":"ZamStats","Type":"Religion","Name":"Seventh Day Adventist","Theme":"Religion","Data_year":"2010"}},{"type":"Feature","id":109,"geometry":{"type":"Point","coordinates":[32.5866981201222,-13.8065312600096]},"properties":{"FID":109,"LAT":-13.80653126,"LONG":32.5866981201,"GlobalID":"36LVK553736_001","Province":"Eastern","ProvinCode":103,"District":"Chipata","DistrCode":"103002","Source":"ZamStats","Type":"Religion","Name":"Seventh Day Adventist","Theme":"Religion","Data_year":"2010"}},{"type":"Feature","id":110,"geometry":{"type":"Point","coordinates":[32.9071169100174,-13.0643258097883]},"properties":{"FID":110,"LAT":-13.0643258098,"LONG":32.90711691,"GlobalID":"36LVL899557_002","Province":"Eastern","ProvinCode":103,"District":"Lumezi","DistrCode":"103013","Source":"ZamStats","Type":"Religion","Name":"Seventh Day Adventist","Theme":"Religion","Data_year":"2010"}},{"type":"Feature","id":111,"geometry":{"type":"Point","coordinates":[31.8940768997292,-13.1413720901498]},"properties":{"FID":111,"LAT":-13.1413720901,"LONG":31.8940768997,"GlobalID":"36LUL801469_001","Province":"Eastern","ProvinCode":103,"District":"Mambwe","DistrCode":"103005","Source":"ZamStats","Type":"Religion","Name":"Seventh Day Adventist","Theme":"Religion","Data_year":"2010"}},{"type":"Feature","id":112,"geometry":{"type":"Point","coordinates":[29.0469204196417,-8.56326668990579]},"properties":{"FID":112,"LAT":-8.56326668991,"LONG":29.0469204196,"GlobalID":"35LQL252528_001","Province":"Luapula","ProvinCode":104,"District":"Chiengi","DistrCode":"104002","Source":"ZamStats","Type":"Section","Name":"Mufinsa Sec","Theme":"Built and Settled Environment","Data_year":"2010"}},{"type":"Feature","id":113,"geometry":{"type":"Point","coordinates":[29.1359812396425,-8.92539675035971]},"properties":{"FID":113,"LAT":-8.92539675036,"LONG":29.1359812396,"GlobalID":"35LQL348127_001","Province":"Luapula","ProvinCode":104,"District":"Chiengi","DistrCode":"104002","Source":"ZamStats","Type":"Seasonal Settlement","Name":"Seasonal Home","Theme":"Built and Settled Environment","Data_year":"2010"}},{"type":"Feature","id":114,"geometry":{"type":"Point","coordinates":[29.0811173203081,-8.89193955017004]},"properties":{"FID":114,"LAT":-8.89193955017,"LONG":29.0811173203,"GlobalID":"35LQL288164_001","Province":"Luapula","ProvinCode":104,"District":"Chiengi","DistrCode":"104002","Source":"ZamStats","Type":"Religion","Name":"Mukunta Seventh Day Adventist","Theme":"Religion","Data_year":"2010"}},{"type":"Feature","id":115,"geometry":{"type":"Point","coordinates":[29.0678668801525,-8.44585113971829]},"properties":{"FID":115,"LAT":-8.44585113972,"LONG":29.0678668802,"GlobalID":"35LQL276658_001","Province":"Luapula","ProvinCode":104,"District":"Chiengi","DistrCode":"104002","Source":"ZamStats","Type":"Religion","Name":"Lubambe Seventh Day Adventist","Theme":"Religion","Data_year":"2010"}},{"type":"Feature","id":116,"geometry":{"type":"Point","coordinates":[29.5963146100313,-8.41278386038681]},"properties":{"FID":116,"LAT":-8.41278386039,"LONG":29.59631461,"GlobalID":"35LQL859691_001","Province":"Northern","ProvinCode":107,"District":"Kaputa","DistrCode":"107002","Source":"ZamStats","Type":"Religion","Name":"Seventh Day Adventist","Theme":"Religion","Data_year":"2010"}},{"type":"Feature","id":117,"geometry":{"type":"Point","coordinates":[29.0903106803937,-8.58325484003876]},"properties":{"FID":117,"LAT":-8.58325484004,"LONG":29.0903106804,"GlobalID":"35LQL300505_001","Province":"Luapula","ProvinCode":104,"District":"Chiengi","DistrCode":"104002","Source":"ZamStats","Type":"Religion","Name":"Kalangila Seventh Day Adventist","Theme":"Religion","Data_year":"2010"}},{"type":"Feature","id":118,"geometry":{"type":"Point","coordinates":[29.0552399597564,-8.55712995997965]},"properties":{"FID":118,"LAT":-8.55712995998,"LONG":29.0552399598,"GlobalID":"35LQL262535_001","Province":"Luapula","ProvinCode":104,"District":"Chiengi","DistrCode":"104002","Source":"ZamStats","Type":"Religion","Name":"Kazembe Seventh Day Adventist","Theme":"Religion","Data_year":"2010"}},{"type":"Feature","id":119,"geometry":{"type":"Point","coordinates":[29.0283899599287,-8.54226993031301]},"properties":{"FID":119,"LAT":-8.54226993031,"LONG":29.0283899599,"GlobalID":"35LQL232551_002","Province":"Luapula","ProvinCode":104,"District":"Chiengi","DistrCode":"104002","Source":"ZamStats","Type":"Religion","Name":"Mayani Seventh Day Adventist","Theme":"Religion","Data_year":"2010"}},{"type":"Feature","id":120,"geometry":{"type":"Point","coordinates":[28.9954698600461,-8.51874804978263]},"properties":{"FID":120,"LAT":-8.51874804978,"LONG":28.99546986,"GlobalID":"35LQL196577_002","Province":"Luapula","ProvinCode":104,"District":"Chiengi","DistrCode":"104002","Source":"ZamStats","Type":"Religion","Name":"Nshinka Seventh Day Adventist","Theme":"Religion","Data_year":"2010"}},{"type":"Feature","id":121,"geometry":{"type":"Point","coordinates":[29.0407099300193,-9.01645992978189]},"properties":{"FID":121,"LAT":-9.01645992978,"LONG":29.04070993,"GlobalID":"35LQL243027_001","Province":"Luapula","ProvinCode":104,"District":"Chiengi","DistrCode":"104002","Source":"ZamStats","Type":"Religion","Name":"Chinungi Seventh Day Adventist","Theme":"Religion","Data_year":"2010"}},{"type":"Feature","id":122,"geometry":{"type":"Point","coordinates":[29.045599929793,-8.99459992984282]},"properties":{"FID":122,"LAT":-8.99459992984,"LONG":29.0455999298,"GlobalID":"35LQL248051_001","Province":"Luapula","ProvinCode":104,"District":"Chiengi","DistrCode":"104002","Source":"ZamStats","Type":"Religion","Name":"Chishipula Seventh Day Adventist","Theme":"Religion","Data_year":"2010"}},{"type":"Feature","id":123,"geometry":{"type":"Point","coordinates":[29.0223899404435,-9.00654991974295]},"properties":{"FID":123,"LAT":-9.00654991974,"LONG":29.0223899404,"GlobalID":"35LQL223038_002","Province":"Luapula","ProvinCode":104,"District":"Chiengi","DistrCode":"104002","Source":"ZamStats","Type":"Religion","Name":"Muselu Seventh Day Adventist","Theme":"Religion","Data_year":"2010"}},{"type":"Feature","id":124,"geometry":{"type":"Point","coordinates":[29.0243212102557,-9.05413431994288]},"properties":{"FID":124,"LAT":-9.05413431994,"LONG":29.0243212103,"GlobalID":"35LQK225985_001","Province":"Luapula","ProvinCode":104,"District":"Chiengi","DistrCode":"104002","Source":"ZamStats","Type":"Religion","Name":"Seventh Day Adventist","Theme":"Religion","Data_year":"2010"}},{"type":"Feature","id":125,"geometry":{"type":"Point","coordinates":[29.0397231300185,-9.04982258964077]},"properties":{"FID":125,"LAT":-9.04982258964,"LONG":29.03972313,"GlobalID":"35LQK242990_001","Province":"Luapula","ProvinCode":104,"District":"Chiengi","DistrCode":"104002","Source":"ZamStats","Type":"Religion","Name":"Seventh Day Adventist","Theme":"Religion","Data_year":"2010"}},{"type":"Feature","id":126,"geometry":{"type":"Point","coordinates":[29.0550335095888,-9.03939298010192]},"properties":{"FID":126,"LAT":-9.0393929801,"LONG":29.0550335096,"GlobalID":"35LQL258001_001","Province":"Luapula","ProvinCode":104,"District":"Chiengi","DistrCode":"104002","Source":"ZamStats","Type":"Religion","Name":"Seventh Day Adventist","Theme":"Religion","Data_year":"2010"}},{"type":"Feature","id":127,"geometry":{"type":"Point","coordinates":[29.0652499600177,-8.44788996035334]},"properties":{"FID":127,"LAT":-8.44788996035,"LONG":29.06524996,"GlobalID":"35LQL273655_001","Province":"Luapula","ProvinCode":104,"District":"Chiengi","DistrCode":"104002","Source":"ZamStats","Type":"Religion","Name":"Lubambe Seventh Day Adventist","Theme":"Religion","Data_year":"2010"}},{"type":"Feature","id":128,"geometry":{"type":"Point","coordinates":[29.0911394002632,-8.86502055975097]},"properties":{"FID":128,"LAT":-8.86502055975,"LONG":29.0911394003,"GlobalID":"35LQL299194_001","Province":"Luapula","ProvinCode":104,"District":"Chiengi","DistrCode":"104002","Source":"ZamStats","Type":"Religion","Name":"Seventh Day Adventist","Theme":"Religion","Data_year":"2010"}},{"type":"Feature","id":129,"geometry":{"type":"Point","coordinates":[29.1459374298685,-8.68931164971281]},"properties":{"FID":129,"LAT":-8.68931164971,"LONG":29.1459374299,"GlobalID":"35LQL361388_001","Province":"Luapula","ProvinCode":104,"District":"Chiengi","DistrCode":"104002","Source":"ZamStats","Type":"Religion","Name":"Puta Seventh Day Adventist","Theme":"Religion","Data_year":"2010"}},{"type":"Feature","id":130,"geometry":{"type":"Point","coordinates":[29.1467195495676,-8.70568384982977]},"properties":{"FID":130,"LAT":-8.70568384983,"LONG":29.1467195496,"GlobalID":"35LQL361370_001","Province":"Luapula","ProvinCode":104,"District":"Chiengi","DistrCode":"104002","Source":"ZamStats","Type":"Religion","Name":"Seventh Day Adventist","Theme":"Religion","Data_year":"2010"}},{"type":"Feature","id":131,"geometry":{"type":"Point","coordinates":[29.0580740499774,-8.96417638033563]},"properties":{"FID":131,"LAT":-8.96417638034,"LONG":29.05807405,"GlobalID":"35LQL262084_001","Province":"Luapula","ProvinCode":104,"District":"Chiengi","DistrCode":"104002","Source":"ZamStats","Type":"Religion","Name":"Shineli Seventh Day Adventist","Theme":"Religion","Data_year":"2010"}},{"type":"Feature","id":132,"geometry":{"type":"Point","coordinates":[29.1165640600834,-9.00193115999497]},"properties":{"FID":132,"LAT":-9.00193115999,"LONG":29.1165640601,"GlobalID":"35LQL326042_001","Province":"Luapula","ProvinCode":104,"District":"Chiengi","DistrCode":"104002","Source":"ZamStats","Type":"Religion","Name":"Seventh Day Adventist","Theme":"Religion","Data_year":"2010"}},{"type":"Feature","id":133,"geometry":{"type":"Point","coordinates":[29.1309033103395,-8.74704971956885]},"properties":{"FID":133,"LAT":-8.74704971957,"LONG":29.1309033103,"GlobalID":"35LQL344324_001","Province":"Luapula","ProvinCode":104,"District":"Chiengi","DistrCode":"104002","Source":"ZamStats","Type":"Religion","Name":"Lambe Seventh Day Adventist","Theme":"Religion","Data_year":"2010"}},{"type":"Feature","id":134,"geometry":{"type":"Point","coordinates":[29.151192629936,-8.7995530399408]},"properties":{"FID":134,"LAT":-8.79955303994,"LONG":29.1511926299,"GlobalID":"35LQL366266_001","Province":"Luapula","ProvinCode":104,"District":"Chiengi","DistrCode":"104002","Source":"ZamStats","Type":"Seasonal Settlement","Name":"Seasonal Huts","Theme":"Built and Settled Environment","Data_year":"2010"}},{"type":"Feature","id":135,"geometry":{"type":"Point","coordinates":[29.0487303196486,-10.4783413695585]},"properties":{"FID":135,"LAT":-10.4783413696,"LONG":29.0487303196,"GlobalID":"35LQJ242409_001","Province":"Luapula","ProvinCode":104,"District":"Chipili","DistrCode":"104003","Source":"ZamStats","Type":"Religion","Name":"Kamami Seventh Day Adventist","Theme":"Religion","Data_year":"2010"}},{"type":"Feature","id":136,"geometry":{"type":"Point","coordinates":[28.9448099798967,-10.6106499698202]},"properties":{"FID":136,"LAT":-10.6106499698,"LONG":28.9448099799,"GlobalID":"35LQJ127264_001","Province":"Luapula","ProvinCode":104,"District":"Chipili","DistrCode":"104003","Source":"ZamStats","Type":"Religion","Name":"Mulobeka Seventh Day Adventist","Theme":"Religion","Data_year":"2010"}},{"type":"Feature","id":137,"geometry":{"type":"Point","coordinates":[28.7877036902731,-10.4961165399463]},"properties":{"FID":137,"LAT":-10.4961165399,"LONG":28.7877036903,"GlobalID":"35LPJ956391_001","Province":"Luapula","ProvinCode":104,"District":"Mwense","DistrCode":"104009","Source":"ZamStats","Type":"Seasonal Settlement","Name":"Seasonal Huts","Theme":"Built and Settled Environment","Data_year":"2010"}},{"type":"Feature","id":138,"geometry":{"type":"Point","coordinates":[29.0986871296074,-10.7238759796927]},"properties":{"FID":138,"LAT":-10.7238759797,"LONG":29.0986871296,"GlobalID":"35LQJ295137_001","Province":"Luapula","ProvinCode":104,"District":"Chipili","DistrCode":"104003","Source":"ZamStats","Type":"Religion","Name":"Kaluba Seventh Day Adventist","Theme":"Religion","Data_year":"2010"}},{"type":"Feature","id":139,"geometry":{"type":"Point","coordinates":[29.1206487295553,-10.688380299711]},"properties":{"FID":139,"LAT":-10.6883802997,"LONG":29.1206487296,"GlobalID":"35LQJ319176_001","Province":"Luapula","ProvinCode":104,"District":"Chipili","DistrCode":"104003","Source":"ZamStats","Type":"Religion","Name":"Kanshimba Seventh Day Adventist","Theme":"Religion","Data_year":"2010"}},{"type":"Feature","id":140,"geometry":{"type":"Point","coordinates":[28.7061242997967,-10.1252583998552]},"properties":{"FID":140,"LAT":-10.1252583999,"LONG":28.7061242998,"GlobalID":"35LPJ869802_001","Province":"Luapula","ProvinCode":104,"District":"Mwense","DistrCode":"104009","Source":"ZamStats","Type":"Seasonal Settlement","Name":"Toba Seasonal","Theme":"Built and Settled Environment","Data_year":"2010"}},{"type":"Feature","id":141,"geometry":{"type":"Point","coordinates":[28.6549306603218,-10.8322882702874]},"properties":{"FID":141,"LAT":-10.8322882703,"LONG":28.6549306603,"GlobalID":"35LPJ809020_001","Province":"Luapula","ProvinCode":104,"District":"Mwense","DistrCode":"104009","Source":"ZamStats","Type":"Seasonal Settlement","Name":"Seasonal Hut","Theme":"Built and Settled Environment","Data_year":"2010"}},{"type":"Feature","id":142,"geometry":{"type":"Point","coordinates":[28.6280346403864,-10.8297307899439]},"properties":{"FID":142,"LAT":-10.8297307899,"LONG":28.6280346404,"GlobalID":"35LPJ779023_001","Province":"Luapula","ProvinCode":104,"District":"Mwense","DistrCode":"104009","Source":"ZamStats","Type":"Seasonal Settlement","Name":"Seasonal Huts","Theme":"Built and Settled Environment","Data_year":"2010"}},{"type":"Feature","id":143,"geometry":{"type":"Point","coordinates":[28.6399889101601,-10.916436879958]},"properties":{"FID":143,"LAT":-10.91643688,"LONG":28.6399889102,"GlobalID":"35LPH792927_001","Province":"Luapula","ProvinCode":104,"District":"Mwense","DistrCode":"104009","Source":"ZamStats","Type":"Seasonal Settlement","Name":"Seasonal Huts","Theme":"Built and Settled Environment","Data_year":"2010"}},{"type":"Feature","id":144,"geometry":{"type":"Point","coordinates":[28.6914945298487,-10.8570728097623]},"properties":{"FID":144,"LAT":-10.8570728098,"LONG":28.6914945298,"GlobalID":"35LPH848993_001","Province":"Luapula","ProvinCode":104,"District":"Mwense","DistrCode":"104009","Source":"ZamStats","Type":"Seasonal Settlement","Name":"Seasonal Huts","Theme":"Built and Settled Environment","Data_year":"2010"}},{"type":"Feature","id":145,"geometry":{"type":"Point","coordinates":[28.7857297503278,-10.1264218896584]},"properties":{"FID":145,"LAT":-10.1264218897,"LONG":28.7857297503,"GlobalID":"35LPJ956800_002","Province":"Luapula","ProvinCode":104,"District":"Mwense","DistrCode":"104009","Source":"ZamStats","Type":"Religion","Name":"Chimanda Seventh Day Adventist","Theme":"Religion","Data_year":"2010"}},{"type":"Feature","id":146,"geometry":{"type":"Point","coordinates":[28.759122320139,-10.1753518402152]},"properties":{"FID":146,"LAT":-10.1753518402,"LONG":28.7591223201,"GlobalID":"35LPJ927746_002","Province":"Luapula","ProvinCode":104,"District":"Mwense","DistrCode":"104009","Source":"ZamStats","Type":"Religion","Name":"Kapamba Seventh Day Adventist","Theme":"Religion","Data_year":"2010"}},{"type":"Feature","id":147,"geometry":{"type":"Point","coordinates":[28.6464397903641,-10.2108968902792]},"properties":{"FID":147,"LAT":-10.2108968903,"LONG":28.6464397904,"GlobalID":"35LPJ803708_001","Province":"Luapula","ProvinCode":104,"District":"Mwense","DistrCode":"104009","Source":"ZamStats","Type":"Religion","Name":"Kapena Seventh Day Adventist","Theme":"Religion","Data_year":"2010"}},{"type":"Feature","id":148,"geometry":{"type":"Point","coordinates":[28.6451865302342,-10.2058036302333]},"properties":{"FID":148,"LAT":-10.2058036302,"LONG":28.6451865302,"GlobalID":"35LPJ802713_001","Province":"Luapula","ProvinCode":104,"District":"Mwense","DistrCode":"104009","Source":"ZamStats","Type":"Religion","Name":"Kaswika Seventh Day Adventist","Theme":"Religion","Data_year":"2010"}},{"type":"Feature","id":149,"geometry":{"type":"Point","coordinates":[28.7146325203746,-10.2247066601842]},"properties":{"FID":149,"LAT":-10.2247066602,"LONG":28.7146325204,"GlobalID":"35LPJ878692_001","Province":"Luapula","ProvinCode":104,"District":"Mwense","DistrCode":"104009","Source":"ZamStats","Type":"Seasonal Settlement","Name":"Seasonal Huts","Theme":"Built and Settled Environment","Data_year":"2010"}},{"type":"Feature","id":150,"geometry":{"type":"Point","coordinates":[28.6349463601864,-10.1625144496821]},"properties":{"FID":150,"LAT":-10.1625144497,"LONG":28.6349463602,"GlobalID":"35LPJ791761_001","Province":"Luapula","ProvinCode":104,"District":"Mwense","DistrCode":"104009","Source":"ZamStats","Type":"Religion","Name":"Chimba Seventh Day Adventist","Theme":"Religion","Data_year":"2010"}},{"type":"Feature","id":151,"geometry":{"type":"Point","coordinates":[28.6433518997704,-10.1900977800884]},"properties":{"FID":151,"LAT":-10.1900977801,"LONG":28.6433518998,"GlobalID":"35LPJ800731_001","Province":"Luapula","ProvinCode":104,"District":"Mwense","DistrCode":"104009","Source":"ZamStats","Type":"Religion","Name":"Kashingwa Seventh Day Adventist","Theme":"Religion","Data_year":"2010"}},{"type":"Feature","id":152,"geometry":{"type":"Point","coordinates":[28.6338956004017,-10.1429649195953]},"properties":{"FID":152,"LAT":-10.1429649196,"LONG":28.6338956004,"GlobalID":"35LPJ790783_001","Province":"Luapula","ProvinCode":104,"District":"Mwense","DistrCode":"104009","Source":"ZamStats","Type":"Religion","Name":"Kasonge Seventh Day Adventist","Theme":"Religion","Data_year":"2010"}},{"type":"Feature","id":153,"geometry":{"type":"Point","coordinates":[28.6410060496895,-10.172186070131]},"properties":{"FID":153,"LAT":-10.1721860701,"LONG":28.6410060497,"GlobalID":"35LPJ797750_001","Province":"Luapula","ProvinCode":104,"District":"Mwense","DistrCode":"104009","Source":"ZamStats","Type":"Religion","Name":"Lukwesa M Seventh Day Adventist","Theme":"Religion","Data_year":"2010"}},{"type":"Feature","id":154,"geometry":{"type":"Point","coordinates":[28.6340266900797,-10.1222369700601]},"properties":{"FID":154,"LAT":-10.1222369701,"LONG":28.6340266901,"GlobalID":"35LPJ790806_001","Province":"Luapula","ProvinCode":104,"District":"Mwense","DistrCode":"104009","Source":"ZamStats","Type":"Religion","Name":"Nsemba Seventh Day Adventist","Theme":"Religion","Data_year":"2010"}},{"type":"Feature","id":155,"geometry":{"type":"Point","coordinates":[28.7778610700324,-10.1130680103803]},"properties":{"FID":155,"LAT":-10.1130680104,"LONG":28.77786107,"GlobalID":"35LPJ948815_001","Province":"Luapula","ProvinCode":104,"District":"Mwense","DistrCode":"104009","Source":"ZamStats","Type":"Religion","Name":"Sesa Seventh Day Adventist","Theme":"Religion","Data_year":"2010"}},{"type":"Feature","id":156,"geometry":{"type":"Point","coordinates":[28.6604227301249,-10.5211038297779]},"properties":{"FID":156,"LAT":-10.5211038298,"LONG":28.6604227301,"GlobalID":"35LPJ817364_001","Province":"Luapula","ProvinCode":104,"District":"Mwense","DistrCode":"104009","Source":"ZamStats","Type":"Religion","Name":"Loki Seventh Day Adventist","Theme":"Religion","Data_year":"2010"}},{"type":"Feature","id":157,"geometry":{"type":"Point","coordinates":[28.6544047799567,-10.2503594798061]},"properties":{"FID":157,"LAT":-10.2503594798,"LONG":28.65440478,"GlobalID":"35LPJ811664_001","Province":"Luapula","ProvinCode":104,"District":"Mwense","DistrCode":"104009","Source":"ZamStats","Type":"Religion","Name":"Lifuka Seventh Day Adventist","Theme":"Religion","Data_year":"2010"}},{"type":"Feature","id":158,"geometry":{"type":"Point","coordinates":[28.6672397297298,-10.2742802501334]},"properties":{"FID":158,"LAT":-10.2742802501,"LONG":28.6672397297,"GlobalID":"35LPJ825637_001","Province":"Luapula","ProvinCode":104,"District":"Mwense","DistrCode":"104009","Source":"ZamStats","Type":"Religion","Name":"Nkumbi Seventh Day Adventist","Theme":"Religion","Data_year":"2010"}},{"type":"Feature","id":159,"geometry":{"type":"Point","coordinates":[28.6956443300219,-10.3773019702097]},"properties":{"FID":159,"LAT":-10.3773019702,"LONG":28.69564433,"GlobalID":"35LPJ856523_001","Province":"Luapula","ProvinCode":104,"District":"Mwense","DistrCode":"104009","Source":"ZamStats","Type":"Religion","Name":"Kapakala Seventh Day Adventist","Theme":"Religion","Data_year":"2010"}},{"type":"Feature","id":160,"geometry":{"type":"Point","coordinates":[28.6984890601221,-10.3869165196816]},"properties":{"FID":160,"LAT":-10.3869165197,"LONG":28.6984890601,"GlobalID":"35LPJ859513_001","Province":"Luapula","ProvinCode":104,"District":"Mwense","DistrCode":"104009","Source":"ZamStats","Type":"Religion","Name":"Mwense Seventh Day Adventist","Theme":"Religion","Data_year":"2010"}},{"type":"Feature","id":161,"geometry":{"type":"Point","coordinates":[28.67491940041,-10.3174883801846]},"properties":{"FID":161,"LAT":-10.3174883802,"LONG":28.6749194004,"GlobalID":"35LPJ834590_001","Province":"Luapula","ProvinCode":104,"District":"Mwense","DistrCode":"104009","Source":"ZamStats","Type":"Religion","Name":"Seventh Day Adventist","Theme":"Religion","Data_year":"2010"}},{"type":"Feature","id":162,"geometry":{"type":"Point","coordinates":[28.6623228204419,-10.3932238204229]},"properties":{"FID":162,"LAT":-10.3932238204,"LONG":28.6623228204,"GlobalID":"35LPJ819506_002","Province":"Luapula","ProvinCode":104,"District":"Mwense","DistrCode":"104009","Source":"ZamStats","Type":"Religion","Name":"Chibanda Seventh Day Adventist","Theme":"Religion","Data_year":"2010"}},{"type":"Feature","id":163,"geometry":{"type":"Point","coordinates":[28.6575453096684,-10.4420310503926]},"properties":{"FID":163,"LAT":-10.4420310504,"LONG":28.6575453097,"GlobalID":"35LPJ814452_001","Province":"Luapula","ProvinCode":104,"District":"Mwense","DistrCode":"104009","Source":"ZamStats","Type":"Religion","Name":"Chimbini Seventh Day Adventist","Theme":"Religion","Data_year":"2010"}},{"type":"Feature","id":164,"geometry":{"type":"Point","coordinates":[28.6560461200324,-10.4249260997597]},"properties":{"FID":164,"LAT":-10.4249260998,"LONG":28.65604612,"GlobalID":"35LPJ812471_001","Province":"Luapula","ProvinCode":104,"District":"Mwense","DistrCode":"104009","Source":"ZamStats","Type":"Religion","Name":"Mushashi Seventh Day Adventist","Theme":"Religion","Data_year":"2010"}},{"type":"Feature","id":165,"geometry":{"type":"Point","coordinates":[28.6886380599985,-10.3871057001679]},"properties":{"FID":165,"LAT":-10.3871057002,"LONG":28.68863806,"GlobalID":"35LPJ848512_001","Province":"Luapula","ProvinCode":104,"District":"Mwense","DistrCode":"104009","Source":"ZamStats","Type":"Religion","Name":"Shichama Seventh Day Adventist","Theme":"Religion","Data_year":"2010"}},{"type":"Feature","id":166,"geometry":{"type":"Point","coordinates":[28.7153599900715,-10.2943499696753]},"properties":{"FID":166,"LAT":-10.2943499697,"LONG":28.7153599901,"GlobalID":"35LPJ878615_001","Province":"Luapula","ProvinCode":104,"District":"Mwense","DistrCode":"104009","Source":"ZamStats","Type":"Religion","Name":"Loto Seventh Day Adventist","Theme":"Religion","Data_year":"2010"}},{"type":"Feature","id":167,"geometry":{"type":"Point","coordinates":[28.678394709948,-10.2893716996442]},"properties":{"FID":167,"LAT":-10.2893716996,"LONG":28.6783947099,"GlobalID":"35LPJ838621_001","Province":"Luapula","ProvinCode":104,"District":"Mwense","DistrCode":"104009","Source":"ZamStats","Type":"Religion","Name":"Mulonga Seventh Day Adventist","Theme":"Religion","Data_year":"2010"}},{"type":"Feature","id":168,"geometry":{"type":"Point","coordinates":[28.7163367302559,-10.2634432099362]},"properties":{"FID":168,"LAT":-10.2634432099,"LONG":28.7163367303,"GlobalID":"35LPJ879649_001","Province":"Luapula","ProvinCode":104,"District":"Mwense","DistrCode":"104009","Source":"ZamStats","Type":"Seasonal Settlement","Name":"Seasonal Huts","Theme":"Built and Settled Environment","Data_year":"2010"}},{"type":"Feature","id":169,"geometry":{"type":"Point","coordinates":[28.6852872301216,-10.2956647497284]},"properties":{"FID":169,"LAT":-10.2956647497,"LONG":28.6852872301,"GlobalID":"35LPJ845614_001","Province":"Luapula","ProvinCode":104,"District":"Mwense","DistrCode":"104009","Source":"ZamStats","Type":"Religion","Name":"Sombe Seventh Day Adventist","Theme":"Religion","Data_year":"2010"}},{"type":"Feature","id":170,"geometry":{"type":"Point","coordinates":[28.7216769297465,-10.2363228100496]},"properties":{"FID":170,"LAT":-10.23632281,"LONG":28.7216769297,"GlobalID":"35LPJ885679_001","Province":"Luapula","ProvinCode":104,"District":"Mwense","DistrCode":"104009","Source":"ZamStats","Type":"Religion","Name":"Tente Seventh Day Adventist","Theme":"Religion","Data_year":"2010"}},{"type":"Feature","id":171,"geometry":{"type":"Point","coordinates":[29.1869251104056,-10.4804546198848]},"properties":{"FID":171,"LAT":-10.4804546199,"LONG":29.1869251104,"GlobalID":"35LQJ393406_001","Province":"Luapula","ProvinCode":104,"District":"Chipili","DistrCode":"104003","Source":"ZamStats","Type":"Religion","Name":"Seventh Day Adventist","Theme":"Religion","Data_year":"2010"}},{"type":"Feature","id":172,"geometry":{"type":"Point","coordinates":[29.2467289796587,-10.4534172004434]},"properties":{"FID":172,"LAT":-10.4534172004,"LONG":29.2467289797,"GlobalID":"35LQJ459435_001","Province":"Luapula","ProvinCode":104,"District":"Chipili","DistrCode":"104003","Source":"ZamStats","Type":"Religion","Name":"Seventh Day Adventist","Theme":"Religion","Data_year":"2010"}},{"type":"Feature","id":173,"geometry":{"type":"Point","coordinates":[28.7268435304047,-10.4107404896818]},"properties":{"FID":173,"LAT":-10.4107404897,"LONG":28.7268435304,"GlobalID":"35LPJ890486_002","Province":"Luapula","ProvinCode":104,"District":"Mwense","DistrCode":"104009","Source":"ZamStats","Type":"Religion","Name":"Chebele Seventh Day Adventist","Theme":"Religion","Data_year":"2010"}},{"type":"Feature","id":174,"geometry":{"type":"Point","coordinates":[28.7369669396726,-10.4260831396251]},"properties":{"FID":174,"LAT":-10.4260831396,"LONG":28.7369669397,"GlobalID":"35LPJ901469_001","Province":"Luapula","ProvinCode":104,"District":"Mwense","DistrCode":"104009","Source":"ZamStats","Type":"Religion","Name":"Kamboo Seventh Day Adventist","Theme":"Religion","Data_year":"2010"}},{"type":"Feature","id":175,"geometry":{"type":"Point","coordinates":[28.8172898000843,-9.41780641013764]},"properties":{"FID":175,"LAT":-9.41780641014,"LONG":28.8172898001,"GlobalID":"35LPK995584_001","Province":"Luapula","ProvinCode":104,"District":"Nchelenge","DistrCode":"104010","Source":"ZamStats","Type":"Religion","Name":"Katuta Seventh Day Adventist","Theme":"Religion","Data_year":"2010"}},{"type":"Feature","id":176,"geometry":{"type":"Point","coordinates":[28.7396733702299,-9.36659541015001]},"properties":{"FID":176,"LAT":-9.36659541015,"LONG":28.7396733702,"GlobalID":"35LPK910641_002","Province":"Luapula","ProvinCode":104,"District":"Nchelenge","DistrCode":"104010","Source":"ZamStats","Type":"Religion","Name":"Menso Seventh Day Adventist","Theme":"Religion","Data_year":"2010"}},{"type":"Feature","id":177,"geometry":{"type":"Point","coordinates":[28.7358295203161,-9.39224176994168]},"properties":{"FID":177,"LAT":-9.39224176994,"LONG":28.7358295203,"GlobalID":"35LPK906613_002","Province":"Luapula","ProvinCode":104,"District":"Nchelenge","DistrCode":"104010","Source":"ZamStats","Type":"Religion","Name":"Mukumbwa Seventh Day Adventist","Theme":"Religion","Data_year":"2010"}},{"type":"Feature","id":178,"geometry":{"type":"Point","coordinates":[28.7520577200877,-9.68508175032247]},"properties":{"FID":178,"LAT":-9.68508175032,"LONG":28.7520577201,"GlobalID":"35LPK922289_001","Province":"Luapula","ProvinCode":104,"District":"Nchelenge","DistrCode":"104010","Source":"ZamStats","Type":"Religion","Name":"Mfundaula Seventh Day Adventist","Theme":"Religion","Data_year":"2010"}},{"type":"Feature","id":179,"geometry":{"type":"Point","coordinates":[28.7744702598947,-9.70519119022123]},"properties":{"FID":179,"LAT":-9.70519119022,"LONG":28.7744702599,"GlobalID":"35LPK946266_001","Province":"Luapula","ProvinCode":104,"District":"Nchelenge","DistrCode":"104010","Source":"ZamStats","Type":"Religion","Name":"Nsongela Seventh Day Adventist C","Theme":"Religion","Data_year":"2010"}},{"type":"Feature","id":180,"geometry":{"type":"Point","coordinates":[28.7791284998804,-9.26459452042076]},"properties":{"FID":180,"LAT":-9.26459452042,"LONG":28.7791284999,"GlobalID":"35LPK954754_002","Province":"Luapula","ProvinCode":104,"District":"Nchelenge","DistrCode":"104010","Source":"ZamStats","Type":"Religion","Name":"Belu Seventh Day Adventist","Theme":"Religion","Data_year":"2010"}},{"type":"Feature","id":181,"geometry":{"type":"Point","coordinates":[28.8021788199966,-9.23759792030773]},"properties":{"FID":181,"LAT":-9.23759792031,"LONG":28.80217882,"GlobalID":"35LPK979783_001","Province":"Luapula","ProvinCode":104,"District":"Nchelenge","DistrCode":"104010","Source":"ZamStats","Type":"Religion","Name":"Chofwe Seventh Day Adventist","Theme":"Religion","Data_year":"2010"}},{"type":"Feature","id":182,"geometry":{"type":"Point","coordinates":[28.8244799598823,-9.20036266010862]},"properties":{"FID":182,"LAT":-9.20036266011,"LONG":28.8244799599,"GlobalID":"35LQK004824_001","Province":"Luapula","ProvinCode":104,"District":"Nchelenge","DistrCode":"104010","Source":"ZamStats","Type":"Religion","Name":"Lupili Seventh Day Adventist","Theme":"Religion","Data_year":"2010"}},{"type":"Feature","id":183,"geometry":{"type":"Point","coordinates":[28.8402022298491,-9.18254617036945]},"properties":{"FID":183,"LAT":-9.18254617037,"LONG":28.8402022298,"GlobalID":"35LQK021844_001","Province":"Luapula","ProvinCode":104,"District":"Nchelenge","DistrCode":"104010","Source":"ZamStats","Type":"Section","Name":"Mulonda Sec","Theme":"Built and Settled Environment","Data_year":"2010"}},{"type":"Feature","id":184,"geometry":{"type":"Point","coordinates":[28.8382568802509,-9.18296299984252]},"properties":{"FID":184,"LAT":-9.18296299984,"LONG":28.8382568803,"GlobalID":"35LQK019844_001","Province":"Luapula","ProvinCode":104,"District":"Nchelenge","DistrCode":"104010","Source":"ZamStats","Type":"Section","Name":"Mulonda Sec","Theme":"Built and Settled Environment","Data_year":"2010"}},{"type":"Feature","id":185,"geometry":{"type":"Point","coordinates":[28.8380989601989,-9.18566759038691]},"properties":{"FID":185,"LAT":-9.18566759039,"LONG":28.8380989602,"GlobalID":"35LQK019841_001","Province":"Luapula","ProvinCode":104,"District":"Nchelenge","DistrCode":"104010","Source":"ZamStats","Type":"Section","Name":"Mulonda Sec","Theme":"Built and Settled Environment","Data_year":"2010"}},{"type":"Feature","id":186,"geometry":{"type":"Point","coordinates":[28.8387110100052,-9.18685093991888]},"properties":{"FID":186,"LAT":-9.18685093992,"LONG":28.83871101,"GlobalID":"35LQK020839_002","Province":"Luapula","ProvinCode":104,"District":"Nchelenge","DistrCode":"104010","Source":"ZamStats","Type":"Religion","Name":"Mutabwa Seventh Day Adventist","Theme":"Religion","Data_year":"2010"}},{"type":"Feature","id":187,"geometry":{"type":"Point","coordinates":[28.838957860417,-9.18766809990285]},"properties":{"FID":187,"LAT":-9.1876680999,"LONG":28.8389578604,"GlobalID":"35LQK020838_001","Province":"Luapula","ProvinCode":104,"District":"Nchelenge","DistrCode":"104010","Source":"ZamStats","Type":"Section","Name":"Mutabwa Sec","Theme":"Built and Settled Environment","Data_year":"2010"}},{"type":"Feature","id":188,"geometry":{"type":"Point","coordinates":[28.8385841102685,-9.18721405018823]},"properties":{"FID":188,"LAT":-9.18721405019,"LONG":28.8385841103,"GlobalID":"35LQK020839_003","Province":"Luapula","ProvinCode":104,"District":"Nchelenge","DistrCode":"104010","Source":"ZamStats","Type":"Section","Name":"Mutabwa  Section A","Theme":"Built and Settled Environment","Data_year":"2010"}},{"type":"Feature","id":189,"geometry":{"type":"Point","coordinates":[28.837130679937,-9.19042355969947]},"properties":{"FID":189,"LAT":-9.1904235597,"LONG":28.8371306799,"GlobalID":"35LQK018835_001","Province":"Luapula","ProvinCode":104,"District":"Nchelenge","DistrCode":"104010","Source":"ZamStats","Type":"Section","Name":"Mutabwa  Section A","Theme":"Built and Settled Environment","Data_year":"2010"}},{"type":"Feature","id":190,"geometry":{"type":"Point","coordinates":[28.8333926100809,-9.19461619008507]},"properties":{"FID":190,"LAT":-9.19461619009,"LONG":28.8333926101,"GlobalID":"35LQK014831_001","Province":"Luapula","ProvinCode":104,"District":"Nchelenge","DistrCode":"104010","Source":"ZamStats","Type":"Section","Name":"Mutabwa Sec","Theme":"Built and Settled Environment","Data_year":"2010"}},{"type":"Feature","id":191,"geometry":{"type":"Point","coordinates":[28.8346904603965,-9.19303527995419]},"properties":{"FID":191,"LAT":-9.19303527995,"LONG":28.8346904604,"GlobalID":"35LQK015832_001","Province":"Luapula","ProvinCode":104,"District":"Nchelenge","DistrCode":"104010","Source":"ZamStats","Type":"Section","Name":"Mutabwa  Section A","Theme":"Built and Settled Environment","Data_year":"2010"}},{"type":"Feature","id":192,"geometry":{"type":"Point","coordinates":[28.8302399197366,-9.19221996987568]},"properties":{"FID":192,"LAT":-9.19221996988,"LONG":28.8302399197,"GlobalID":"35LQK010833_001","Province":"Luapula","ProvinCode":104,"District":"Nchelenge","DistrCode":"104010","Source":"ZamStats","Type":"Section","Name":"Mutabwa  Section B","Theme":"Built and Settled Environment","Data_year":"2010"}},{"type":"Feature","id":193,"geometry":{"type":"Point","coordinates":[28.8298589597233,-9.19526847016374]},"properties":{"FID":193,"LAT":-9.19526847016,"LONG":28.8298589597,"GlobalID":"35LQK010830_001","Province":"Luapula","ProvinCode":104,"District":"Nchelenge","DistrCode":"104010","Source":"ZamStats","Type":"Section","Name":"Mutabwa  Section A","Theme":"Built and Settled Environment","Data_year":"2010"}},{"type":"Feature","id":194,"geometry":{"type":"Point","coordinates":[28.8093492900377,-9.22682483000187]},"properties":{"FID":194,"LAT":-9.22682483,"LONG":28.80934929,"GlobalID":"35LPK987795_001","Province":"Luapula","ProvinCode":104,"District":"Nchelenge","DistrCode":"104010","Source":"ZamStats","Type":"Religion","Name":"Mutampuka Seventh Day Adventist","Theme":"Religion","Data_year":"2010"}},{"type":"Feature","id":195,"geometry":{"type":"Point","coordinates":[28.7860183400744,-9.26123387983961]},"properties":{"FID":195,"LAT":-9.26123387984,"LONG":28.7860183401,"GlobalID":"35LPK961757_001","Province":"Luapula","ProvinCode":104,"District":"Nchelenge","DistrCode":"104010","Source":"ZamStats","Type":"Religion","Name":"Ntoto Seventh Day Adventist","Theme":"Religion","Data_year":"2010"}},{"type":"Feature","id":196,"geometry":{"type":"Point","coordinates":[28.7405252296557,-9.32456746041993]},"properties":{"FID":196,"LAT":-9.32456746042,"LONG":28.7405252297,"GlobalID":"35LPK911687_001","Province":"Luapula","ProvinCode":104,"District":"Nchelenge","DistrCode":"104010","Source":"ZamStats","Type":"Religion","Name":"Kabulo Seventh Day Adventist","Theme":"Religion","Data_year":"2010"}},{"type":"Feature","id":197,"geometry":{"type":"Point","coordinates":[28.737395509795,-9.32561285035274]},"properties":{"FID":197,"LAT":-9.32561285035,"LONG":28.7373955098,"GlobalID":"35LPK908686_001","Province":"Luapula","ProvinCode":104,"District":"Nchelenge","DistrCode":"104010","Source":"ZamStats","Type":"Religion","Name":"Seventh Day Adventist","Theme":"Religion","Data_year":"2010"}},{"type":"Feature","id":198,"geometry":{"type":"Point","coordinates":[28.7398130996949,-9.33256773041637]},"properties":{"FID":198,"LAT":-9.33256773042,"LONG":28.7398130997,"GlobalID":"35LPK910679_001","Province":"Luapula","ProvinCode":104,"District":"Nchelenge","DistrCode":"104010","Source":"ZamStats","Type":"Religion","Name":"Mulumba Seventh Day Adventist","Theme":"Religion","Data_year":"2010"}},{"type":"Feature","id":199,"geometry":{"type":"Point","coordinates":[28.7369317402077,-9.34169771977389]},"properties":{"FID":199,"LAT":-9.34169771977,"LONG":28.7369317402,"GlobalID":"35LPK907669_001","Province":"Luapula","ProvinCode":104,"District":"Nchelenge","DistrCode":"104010","Source":"ZamStats","Type":"Religion","Name":"Robby Seventh Day Adventist","Theme":"Religion","Data_year":"2010"}},{"type":"Feature","id":200,"geometry":{"type":"Point","coordinates":[28.7290699298334,-9.3182999699676]},"properties":{"FID":200,"LAT":-9.31829996997,"LONG":28.7290699298,"GlobalID":"35LPK899694_001","Province":"Luapula","ProvinCode":104,"District":"Nchelenge","DistrCode":"104010","Source":"ZamStats","Type":"Religion","Name":"Kamuchanga Seventh Day Adventist","Theme":"Religion","Data_year":"2010"}},{"type":"Feature","id":201,"geometry":{"type":"Point","coordinates":[28.7574412498139,-9.28508442030972]},"properties":{"FID":201,"LAT":-9.28508442031,"LONG":28.7574412498,"GlobalID":"35LPK930731_001","Province":"Luapula","ProvinCode":104,"District":"Nchelenge","DistrCode":"104010","Source":"ZamStats","Type":"Religion","Name":"Mumpundu Seventh Day Adventist","Theme":"Religion","Data_year":"2010"}},{"type":"Feature","id":202,"geometry":{"type":"Point","coordinates":[28.7138209002144,-9.54243549979844]},"properties":{"FID":202,"LAT":-9.5424354998,"LONG":28.7138209002,"GlobalID":"35LPK881447_001","Province":"Luapula","ProvinCode":104,"District":"Nchelenge","DistrCode":"104010","Source":"ZamStats","Type":"Religion","Name":"Kapambwe Seventh Day Adventist","Theme":"Religion","Data_year":"2010"}},{"type":"Feature","id":203,"geometry":{"type":"Point","coordinates":[28.7333405898964,-9.5914320802263]},"properties":{"FID":203,"LAT":-9.59143208023,"LONG":28.7333405899,"GlobalID":"35LPK902392_001","Province":"Luapula","ProvinCode":104,"District":"Nchelenge","DistrCode":"104010","Source":"ZamStats","Type":"Religion","Name":"Mukanso Seventh Day Adventist","Theme":"Religion","Data_year":"2010"}},{"type":"Feature","id":204,"geometry":{"type":"Point","coordinates":[28.7163318703196,-9.56928549962606]},"properties":{"FID":204,"LAT":-9.56928549963,"LONG":28.7163318703,"GlobalID":"35LPK883417_001","Province":"Luapula","ProvinCode":104,"District":"Nchelenge","DistrCode":"104010","Source":"ZamStats","Type":"Religion","Name":"Shimulundu Seventh Day Adventist","Theme":"Religion","Data_year":"2010"}},{"type":"Feature","id":205,"geometry":{"type":"Point","coordinates":[28.4667899602885,-9.30792997019194]},"properties":{"FID":205,"LAT":-9.30792997019,"LONG":28.4667899603,"GlobalID":"35LPK610707_002","Province":"Luapula","ProvinCode":104,"District":"Nchelenge","DistrCode":"104010","Source":"ZamStats","Type":"Religion","Name":"Lukwesa Seventh Day Adventist","Theme":"Religion","Data_year":"2010"}},{"type":"Feature","id":206,"geometry":{"type":"Point","coordinates":[28.6224699800056,-9.40726993955604]},"properties":{"FID":206,"LAT":-9.40726993956,"LONG":28.62246998,"GlobalID":"35LPK781597_001","Province":"Luapula","ProvinCode":104,"District":"Nchelenge","DistrCode":"104010","Source":"ZamStats","Type":"Religion","Name":"Mupitwa Seventh Day Adventist","Theme":"Religion","Data_year":"2010"}},{"type":"Feature","id":207,"geometry":{"type":"Point","coordinates":[28.6070199501107,-9.40825991955961]},"properties":{"FID":207,"LAT":-9.40825991956,"LONG":28.6070199501,"GlobalID":"35LPK764596_001","Province":"Luapula","ProvinCode":104,"District":"Nchelenge","DistrCode":"104010","Source":"ZamStats","Type":"Religion","Name":"Kanakashi Seventh Day Adventist","Theme":"Religion","Data_year":"2010"}},{"type":"Feature","id":208,"geometry":{"type":"Point","coordinates":[28.7390199201333,-9.31550996990916]},"properties":{"FID":208,"LAT":-9.31550996991,"LONG":28.7390199201,"GlobalID":"35LPK910697_001","Province":"Luapula","ProvinCode":104,"District":"Nchelenge","DistrCode":"104010","Source":"ZamStats","Type":"Religion","Name":"Kashikishi Seventh Day Adventist","Theme":"Religion","Data_year":"2010"}},{"type":"Feature","id":209,"geometry":{"type":"Point","coordinates":[28.735784250243,-9.41509133979343]},"properties":{"FID":209,"LAT":-9.41509133979,"LONG":28.7357842502,"GlobalID":"35LPK905587_002","Province":"Luapula","ProvinCode":104,"District":"Nchelenge","DistrCode":"104010","Source":"ZamStats","Type":"Religion","Name":"Kambwali Seventh Day Adventist","Theme":"Religion","Data_year":"2010"}},{"type":"Feature","id":210,"geometry":{"type":"Point","coordinates":[28.7412813598469,-9.42426575026411]},"properties":{"FID":210,"LAT":-9.42426575026,"LONG":28.7412813598,"GlobalID":"35LPK911577_001","Province":"Luapula","ProvinCode":104,"District":"Nchelenge","DistrCode":"104010","Source":"ZamStats","Type":"Religion","Name":"Kaseketi Seventh Day Adventist","Theme":"Religion","Data_year":"2010"}},{"type":"Feature","id":211,"geometry":{"type":"Point","coordinates":[28.8485803598957,-9.1744939195587]},"properties":{"FID":211,"LAT":-9.17449391956,"LONG":28.8485803599,"GlobalID":"35LQK031853_002","Province":"Luapula","ProvinCode":104,"District":"Nchelenge","DistrCode":"104010","Source":"ZamStats","Type":"Section","Name":"Chibule Sec","Theme":"Built and Settled Environment","Data_year":"2010"}},{"type":"Feature","id":212,"geometry":{"type":"Point","coordinates":[28.84591810044,-9.1745663401644]},"properties":{"FID":212,"LAT":-9.17456634016,"LONG":28.8459181004,"GlobalID":"35LQK028853_001","Province":"Luapula","ProvinCode":104,"District":"Nchelenge","DistrCode":"104010","Source":"ZamStats","Type":"Commercial","Name":"Cj Mulenga Shop","Theme":"Built and Settled Environment","Data_year":"2010"}},{"type":"Feature","id":213,"geometry":{"type":"Point","coordinates":[28.6241099800915,-9.48318995035589]},"properties":{"FID":213,"LAT":-9.48318995036,"LONG":28.6241099801,"GlobalID":"35LPK782513_002","Province":"Luapula","ProvinCode":104,"District":"Nchelenge","DistrCode":"104010","Source":"ZamStats","Type":"Religion","Name":"Chipashi Seventh Day Adventist","Theme":"Religion","Data_year":"2010"}},{"type":"Feature","id":214,"geometry":{"type":"Point","coordinates":[27.5921199997383,-14.6336899999935]},"properties":{"FID":214,"LAT":-14.63369,"LONG":27.5921199997,"GlobalID":"35LND637821_001","Province":"Central","ProvinCode":101,"District":"Chibombo","DistrCode":"101001","Source":"ZamStats","Type":"Religion","Name":"Chiyuni Seventh Day Adventist","Theme":"Religion","Data_year":"2010"}},{"type":"Feature","id":215,"geometry":{"type":"Point","coordinates":[27.7391399996113,-14.7056400003856]},"properties":{"FID":215,"LAT":-14.7056400004,"LONG":27.7391399996,"GlobalID":"35LND795741_001","Province":"Central","ProvinCode":101,"District":"Chibombo","DistrCode":"101001","Source":"ZamStats","Type":"Religion","Name":"Mulonda Seventh Day Adventist","Theme":"Religion","Data_year":"2010"}},{"type":"Feature","id":216,"geometry":{"type":"Point","coordinates":[27.4055699998557,-14.8696500004471]},"properties":{"FID":216,"LAT":-14.8696500004,"LONG":27.4055699999,"GlobalID":"35LND436560_001","Province":"Central","ProvinCode":101,"District":"Chibombo","DistrCode":"101001","Source":"ZamStats","Type":"Religion","Name":"Kamisamba Seventh Day Adventist","Theme":"Religion","Data_year":"2010"}},{"type":"Feature","id":217,"geometry":{"type":"Point","coordinates":[27.4818399998162,-14.8981000003147]},"properties":{"FID":217,"LAT":-14.8981000003,"LONG":27.4818399998,"GlobalID":"35LND518528_001","Province":"Central","ProvinCode":101,"District":"Chibombo","DistrCode":"101001","Source":"ZamStats","Type":"Religion","Name":"Shimalombe Seventh Day Adventist","Theme":"Religion","Data_year":"2010"}},{"type":"Feature","id":218,"geometry":{"type":"Point","coordinates":[27.609640000086,-14.8722099997916]},"properties":{"FID":218,"LAT":-14.8722099998,"LONG":27.6096400001,"GlobalID":"35LND655557_001","Province":"Central","ProvinCode":101,"District":"Chibombo","DistrCode":"101001","Source":"ZamStats","Type":"Religion","Name":"Shala Seventh Day Adventist","Theme":"Religion","Data_year":"2010"}},{"type":"Feature","id":219,"geometry":{"type":"Point","coordinates":[27.6131700000955,-14.8512200004026]},"properties":{"FID":219,"LAT":-14.8512200004,"LONG":27.6131700001,"GlobalID":"35LND659580_001","Province":"Central","ProvinCode":101,"District":"Chibombo","DistrCode":"101001","Source":"ZamStats","Type":"Religion","Name":"Kambeya Seventh Day Adventist","Theme":"Religion","Data_year":"2010"}},{"type":"Feature","id":220,"geometry":{"type":"Point","coordinates":[27.7490099997117,-14.7911100001264]},"properties":{"FID":220,"LAT":-14.7911100001,"LONG":27.7490099997,"GlobalID":"35LND806646_001","Province":"Central","ProvinCode":101,"District":"Chibombo","DistrCode":"101001","Source":"ZamStats","Type":"Religion","Name":"Kasowa Seventh Day Adventist","Theme":"Religion","Data_year":"2010"}},{"type":"Feature","id":221,"geometry":{"type":"Point","coordinates":[27.7544899997138,-14.8421500003222]},"properties":{"FID":221,"LAT":-14.8421500003,"LONG":27.7544899997,"GlobalID":"35LND811589_001","Province":"Central","ProvinCode":101,"District":"Chibombo","DistrCode":"101001","Source":"ZamStats","Type":"Religion","Name":"Nakambulwe Seventh Day Adventist","Theme":"Religion","Data_year":"2010"}},{"type":"Feature","id":222,"geometry":{"type":"Point","coordinates":[27.761420000033,-14.7870499999575]},"properties":{"FID":222,"LAT":-14.78705,"LONG":27.76142,"GlobalID":"35LND819650_001","Province":"Central","ProvinCode":101,"District":"Chibombo","DistrCode":"101001","Source":"ZamStats","Type":"Religion","Name":"Seventh Day Adventist Mashikili","Theme":"Religion","Data_year":"2010"}},{"type":"Feature","id":223,"geometry":{"type":"Point","coordinates":[27.7963399996913,-14.7951900003182]},"properties":{"FID":223,"LAT":-14.7951900003,"LONG":27.7963399997,"GlobalID":"35LND856641_001","Province":"Central","ProvinCode":101,"District":"Chibombo","DistrCode":"101001","Source":"ZamStats","Type":"Religion","Name":"Seventh Day Adventist","Theme":"Religion","Data_year":"2010"}},{"type":"Feature","id":224,"geometry":{"type":"Point","coordinates":[27.8276599997093,-14.8210700003802]},"properties":{"FID":224,"LAT":-14.8210700004,"LONG":27.8276599997,"GlobalID":"35LND890612_001","Province":"Central","ProvinCode":101,"District":"Chibombo","DistrCode":"101001","Source":"ZamStats","Type":"Religion","Name":"Kacholola Seventh Day Adventist","Theme":"Religion","Data_year":"2010"}},{"type":"Feature","id":225,"geometry":{"type":"Point","coordinates":[27.8575799999171,-14.7596400003857]},"properties":{"FID":225,"LAT":-14.7596400004,"LONG":27.8575799999,"GlobalID":"35LND923680_001","Province":"Central","ProvinCode":101,"District":"Chibombo","DistrCode":"101001","Source":"ZamStats","Type":"Religion","Name":"Chinkomba Seventh Day Adventist","Theme":"Religion","Data_year":"2010"}},{"type":"Feature","id":226,"geometry":{"type":"Point","coordinates":[27.8592899996338,-14.8062699995608]},"properties":{"FID":226,"LAT":-14.8062699996,"LONG":27.8592899996,"GlobalID":"35LND924629_001","Province":"Central","ProvinCode":101,"District":"Chibombo","DistrCode":"101001","Source":"ZamStats","Type":"Religion","Name":"Mwanje Seventh Day Adventist","Theme":"Religion","Data_year":"2010"}},{"type":"Feature","id":227,"geometry":{"type":"Point","coordinates":[27.8089700002653,-14.767079999942]},"properties":{"FID":227,"LAT":-14.7670799999,"LONG":27.8089700003,"GlobalID":"35LND870672_001","Province":"Central","ProvinCode":101,"District":"Chibombo","DistrCode":"101001","Source":"ZamStats","Type":"Religion","Name":"Choongwe Seventh Day Adventist","Theme":"Religion","Data_year":"2010"}},{"type":"Feature","id":228,"geometry":{"type":"Point","coordinates":[27.8076699996708,-15.0531400004106]},"properties":{"FID":228,"LAT":-15.0531400004,"LONG":27.8076699997,"GlobalID":"35LND868356_001","Province":"Central","ProvinCode":101,"District":"Chibombo","DistrCode":"101001","Source":"ZamStats","Type":"Religion","Name":"Nsangano Seventh Day Adventist","Theme":"Religion","Data_year":"2010"}},{"type":"Feature","id":229,"geometry":{"type":"Point","coordinates":[27.8580599995694,-15.1147200001279]},"properties":{"FID":229,"LAT":-15.1147200001,"LONG":27.8580599996,"GlobalID":"35LND922288_001","Province":"Central","ProvinCode":101,"District":"Chibombo","DistrCode":"101001","Source":"ZamStats","Type":"Religion","Name":"Nankunko Seventh Day Adventist","Theme":"Religion","Data_year":"2010"}},{"type":"Feature","id":230,"geometry":{"type":"Point","coordinates":[27.7647000002049,-15.1250299998346]},"properties":{"FID":230,"LAT":-15.1250299998,"LONG":27.7647000002,"GlobalID":"35LND821277_001","Province":"Central","ProvinCode":101,"District":"Chibombo","DistrCode":"101001","Source":"ZamStats","Type":"Religion","Name":"Kalundu Seventh Day Adventist","Theme":"Religion","Data_year":"2010"}},{"type":"Feature","id":231,"geometry":{"type":"Point","coordinates":[27.824759999974,-15.1992299996647]},"properties":{"FID":231,"LAT":-15.1992299997,"LONG":27.82476,"GlobalID":"35LND885194_001","Province":"Central","ProvinCode":101,"District":"Chibombo","DistrCode":"101001","Source":"ZamStats","Type":"Religion","Name":"Mubambalwe Seventh Day Adventist","Theme":"Religion","Data_year":"2010"}},{"type":"Feature","id":232,"geometry":{"type":"Point","coordinates":[27.7437800004467,-15.2517800002468]},"properties":{"FID":232,"LAT":-15.2517800002,"LONG":27.7437800004,"GlobalID":"35LND798136_001","Province":"Central","ProvinCode":101,"District":"Chibombo","DistrCode":"101001","Source":"ZamStats","Type":"Religion","Name":"Kalala Seventh Day Adventist","Theme":"Religion","Data_year":"2010"}},{"type":"Feature","id":233,"geometry":{"type":"Point","coordinates":[27.7829900000885,-15.2362899999835]},"properties":{"FID":233,"LAT":-15.23629,"LONG":27.7829900001,"GlobalID":"35LND840153_001","Province":"Central","ProvinCode":101,"District":"Chibombo","DistrCode":"101001","Source":"ZamStats","Type":"Religion","Name":"Lupani Seventh Day Adventist Sch","Theme":"Religion","Data_year":"2010"}},{"type":"Feature","id":234,"geometry":{"type":"Point","coordinates":[28.2156000003398,-14.9868500002273]},"properties":{"FID":234,"LAT":-14.9868500002,"LONG":28.2156000003,"GlobalID":"35LPD307427_001","Province":"Central","ProvinCode":101,"District":"Chisamba","DistrCode":"101002","Source":"ZamStats","Type":"Section","Name":"Kalundu Daily","Theme":"Built and Settled Environment","Data_year":"2010"}},{"type":"Feature","id":235,"geometry":{"type":"Point","coordinates":[28.4726599998592,-14.9717200003777]},"properties":{"FID":235,"LAT":-14.9717200004,"LONG":28.4726599999,"GlobalID":"35LPD583442_001","Province":"Central","ProvinCode":101,"District":"Chisamba","DistrCode":"101002","Source":"ZamStats","Type":"Section","Name":"Daily Compound","Theme":"Built and Settled Environment","Data_year":"2010"}},{"type":"Feature","id":236,"geometry":{"type":"Point","coordinates":[28.0304100002214,-14.7600700004301]},"properties":{"FID":236,"LAT":-14.7600700004,"LONG":28.0304100002,"GlobalID":"35LPD109679_001","Province":"Central","ProvinCode":101,"District":"Chibombo","DistrCode":"101001","Source":"ZamStats","Type":"Religion","Name":"Seventh Day Adventist Churchshimbilo","Theme":"Religion","Data_year":"2010"}},{"type":"Feature","id":237,"geometry":{"type":"Point","coordinates":[27.8708599998891,-15.2359600000539]},"properties":{"FID":237,"LAT":-15.2359600001,"LONG":27.8708599999,"GlobalID":"35LND935153_001","Province":"Central","ProvinCode":101,"District":"Chibombo","DistrCode":"101001","Source":"ZamStats","Type":"Religion","Name":"Seventh Day Adventist Mbosha","Theme":"Religion","Data_year":"2010"}},{"type":"Feature","id":238,"geometry":{"type":"Point","coordinates":[28.5742999997452,-14.7696800002318]},"properties":{"FID":238,"LAT":-14.7696800002,"LONG":28.5742999997,"GlobalID":"35LPD694665_001","Province":"Central","ProvinCode":101,"District":"Chisamba","DistrCode":"101002","Source":"ZamStats","Type":"Religion","Name":"Seventh Day Adventist Lufwambula","Theme":"Religion","Data_year":"2010"}},{"type":"Feature","id":239,"geometry":{"type":"Point","coordinates":[28.6499499998926,-14.7977400001009]},"properties":{"FID":239,"LAT":-14.7977400001,"LONG":28.6499499999,"GlobalID":"35LPD775633_001","Province":"Central","ProvinCode":101,"District":"Chisamba","DistrCode":"101002","Source":"ZamStats","Type":"Religion","Name":"Seventh Day Adventist Malekano","Theme":"Religion","Data_year":"2010"}},{"type":"Feature","id":240,"geometry":{"type":"Point","coordinates":[28.2905699997058,-15.2056000002398]},"properties":{"FID":240,"LAT":-15.2056000002,"LONG":28.2905699997,"GlobalID":"35LPD386185_001","Province":"Central","ProvinCode":101,"District":"Chibombo","DistrCode":"101001","Source":"ZamStats","Type":"Religion","Name":"Seventh Day Adventist","Theme":"Religion","Data_year":"2010"}},{"type":"Feature","id":241,"geometry":{"type":"Point","coordinates":[28.3126899999436,-15.1855199996482]},"properties":{"FID":241,"LAT":-15.1855199996,"LONG":28.3126899999,"GlobalID":"35LPD410207_001","Province":"Central","ProvinCode":101,"District":"Chibombo","DistrCode":"101001","Source":"ZamStats","Type":"Religion","Name":"Seventh Day Adventist Ngobola","Theme":"Religion","Data_year":"2010"}},{"type":"Feature","id":242,"geometry":{"type":"Point","coordinates":[28.3271100003263,-15.235879999962]},"properties":{"FID":242,"LAT":-15.23588,"LONG":28.3271100003,"GlobalID":"35LPD425151_001","Province":"Central","ProvinCode":101,"District":"Chibombo","DistrCode":"101001","Source":"ZamStats","Type":"Religion","Name":"Chombela Seventh Day Adventist","Theme":"Religion","Data_year":"2010"}},{"type":"Feature","id":243,"geometry":{"type":"Point","coordinates":[28.5793800001869,-14.9260099995618]},"properties":{"FID":243,"LAT":-14.9260099996,"LONG":28.5793800002,"GlobalID":"35LPD698492_001","Province":"Central","ProvinCode":101,"District":"Chisamba","DistrCode":"101002","Source":"ZamStats","Type":"Section","Name":"Live Stock Sec","Theme":"Built and Settled Environment","Data_year":"2010"}},{"type":"Feature","id":244,"geometry":{"type":"Point","coordinates":[28.8443599998142,-15.1072700001104]},"properties":{"FID":244,"LAT":-15.1072700001,"LONG":28.8443599998,"GlobalID":"35LPD982289_001","Province":"Central","ProvinCode":101,"District":"Chisamba","DistrCode":"101002","Source":"ZamStats","Type":"Religion","Name":"Nakanga Seventh Day Adventist","Theme":"Religion","Data_year":"2010"}},{"type":"Feature","id":245,"geometry":{"type":"Point","coordinates":[28.598840000066,-14.4028900000734]},"properties":{"FID":245,"LAT":-14.4028900001,"LONG":28.5988400001,"GlobalID":"35LPE723071_001","Province":"Central","ProvinCode":101,"District":"Chisamba","DistrCode":"101002","Source":"ZamStats","Type":"Religion","Name":"Chibanga Seventh Day Adventist","Theme":"Religion","Data_year":"2010"}},{"type":"Feature","id":246,"geometry":{"type":"Point","coordinates":[28.6149399996813,-14.4451300000494]},"properties":{"FID":246,"LAT":-14.44513,"LONG":28.6149399997,"GlobalID":"35LPE740024_001","Province":"Central","ProvinCode":101,"District":"Chisamba","DistrCode":"101002","Source":"ZamStats","Type":"Religion","Name":"Kebumba Seventh Day Adventist","Theme":"Religion","Data_year":"2010"}},{"type":"Feature","id":247,"geometry":{"type":"Point","coordinates":[28.6338399998162,-14.4753600001638]},"properties":{"FID":247,"LAT":-14.4753600002,"LONG":28.6338399998,"GlobalID":"35LPD760990_001","Province":"Central","ProvinCode":101,"District":"Chisamba","DistrCode":"101002","Source":"ZamStats","Type":"Religion","Name":"Katuba Seventh Day Adventist","Theme":"Religion","Data_year":"2010"}},{"type":"Feature","id":248,"geometry":{"type":"Point","coordinates":[28.6656899999936,-14.4292800002718]},"properties":{"FID":248,"LAT":-14.4292800003,"LONG":28.66569,"GlobalID":"35LPE795041_001","Province":"Central","ProvinCode":101,"District":"Chisamba","DistrCode":"101002","Source":"ZamStats","Type":"Religion","Name":"Kaumba Seventh Day Adventist","Theme":"Religion","Data_year":"2010"}},{"type":"Feature","id":249,"geometry":{"type":"Point","coordinates":[28.6509199996583,-14.4421500002223]},"properties":{"FID":249,"LAT":-14.4421500002,"LONG":28.6509199997,"GlobalID":"35LPE779027_001","Province":"Central","ProvinCode":101,"District":"Chisamba","DistrCode":"101002","Source":"ZamStats","Type":"Religion","Name":"Genesis Seventh Day Adventist","Theme":"Religion","Data_year":"2010"}},{"type":"Feature","id":250,"geometry":{"type":"Point","coordinates":[28.6768900002733,-14.451659999909]},"properties":{"FID":250,"LAT":-14.4516599999,"LONG":28.6768900003,"GlobalID":"35LPE807016_001","Province":"Central","ProvinCode":101,"District":"Chisamba","DistrCode":"101002","Source":"ZamStats","Type":"Religion","Name":"Kabula Seventh Day Adventist","Theme":"Religion","Data_year":"2010"}},{"type":"Feature","id":251,"geometry":{"type":"Point","coordinates":[28.5076799996323,-14.77179999997]},