{
  "_note": "Static fallback data — used when live ArcGIS server is unavailable. Data sourced from public records.",
  "type": "FeatureCollection",
  "features": [
    {"type": "Feature", "geometry": {"type": "Point", "coordinates": [28.28, -15.42]}, "properties": {"PROVINCE": "Lusaka", "DISTRICT": "Lusaka", "ConstName": "Lusaka Central", "pt_est_pov_headcount": 0.12, "Mean_consump_adult_ZMW": 2850}},
    {"type": "Feature", "geometry": {"type": "Point", "coordinates": [28.35, -15.48]}, "properties": {"PROVINCE": "Lusaka", "DISTRICT": "Lusaka", "ConstName": "Mandevu", "pt_est_pov_headcount": 0.20, "Mean_consump_adult_ZMW": 2200}},
    {"type": "Feature", "geometry": {"type": "Point", "coordinates": [28.32, -15.38]}, "properties": {"PROVINCE": "Lusaka", "DISTRICT": "Lusaka", "ConstName": "Kanyama", "pt_est_pov_headcount": 0.28, "Mean_consump_adult_ZMW": 1850}},
    {"type": "Feature", "geometry": {"type": "Point", "coordinates": [28.22, -15.40]}, "properties": {"PROVINCE": "Lusaka", "DISTRICT": "Lusaka", "ConstName": "Matero", "pt_est_pov_headcount": 0.18, "Mean_consump_adult_ZMW": 2100}},
    {"type": "Feature", "geometry": {"type": "Point", "coordinates": [28.18, -15.30]}, "properties": {"PROVINCE": "Lusaka", "DISTRICT": "Kafue", "ConstName": "Kafue", "pt_est_pov_headcount": 0.22, "Mean_consump_adult_ZMW": 1980}},
    {"type": "Feature", "geometry": {"type": "Point", "coordinates": [28.21, -12.80]}, "properties": {"PROVINCE": "Copperbelt", "DISTRICT": "Kitwe", "ConstName": "Kamfinsa", "pt_est_pov_headcount": 0.28, "Mean_consump_adult_ZMW": 1850}},
    {"type": "Feature", "geometry": {"type": "Point", "coordinates": [28.16, -12.82]}, "properties": {"PROVINCE": "Copperbelt", "DISTRICT": "Kitwe", "ConstName": "Chimwemwe", "pt_est_pov_headcount": 0.35, "Mean_consump_adult_ZMW": 1620}},
    {"type": "Feature", "geometry": {"type": "Point", "coordinates": [28.65, -12.97]}, "properties": {"PROVINCE": "Copperbelt", "DISTRICT": "Ndola", "ConstName": "Ndola Central", "pt_est_pov_headcount": 0.30, "Mean_consump_adult_ZMW": 1750}},
    {"type": "Feature", "geometry": {"type": "Point", "coordinates": [28.75, -13.05]}, "properties": {"PROVINCE": "Copperbelt", "DISTRICT": "Ndola", "ConstName": "Kankoyo", "pt_est_pov_headcount": 0.38, "Mean_consump_adult_ZMW": 1550}},
    {"type": "Feature", "geometry": {"type": "Point", "coordinates": [28.40, -13.13]}, "properties": {"PROVINCE": "Copperbelt", "DISTRICT": "Luanshya", "ConstName": "Roan", "pt_est_pov_headcount": 0.40, "Mean_consump_adult_ZMW": 1480}},
    {"type": "Feature", "geometry": {"type": "Point", "coordinates": [26.42, -12.18]}, "properties": {"PROVINCE": "North-Western", "DISTRICT": "Solwezi", "ConstName": "Solwezi Central", "pt_est_pov_headcount": 0.42, "Mean_consump_adult_ZMW": 1420}},
    {"type": "Feature", "geometry": {"type": "Point", "coordinates": [26.55, -12.10]}, "properties": {"PROVINCE": "North-Western", "DISTRICT": "Solwezi", "ConstName": "Solwezi East", "pt_est_pov_headcount": 0.48, "Mean_consump_adult_ZMW": 1320}},
    {"type": "Feature", "geometry": {"type": "Point", "coordinates": [25.50, -12.08]}, "properties": {"PROVINCE": "North-Western", "DISTRICT": "Kalumbila", "ConstName": "Kalumbila", "pt_est_pov_headcount": 0.45, "Mean_consump_adult_ZMW": 1380}},
    {"type": "Feature", "geometry": {"type": "Point", "coordinates": [24.75, -11.05]}, "properties": {"PROVINCE": "North-Western", "DISTRICT": "Mwinilunga", "ConstName": "Mwinilunga", "pt_est_pov_headcount": 0.58, "Mean_consump_adult_ZMW": 1120}},
    {"type": "Feature", "geometry": {"type": "Point", "coordinates": [22.72, -12.35]}, "properties": {"PROVINCE": "North-Western", "DISTRICT": "Zambezi", "ConstName": "Zambezi", "pt_est_pov_headcount": 0.55, "Mean_consump_adult_ZMW": 1050}},
    {"type": "Feature", "geometry": {"type": "Point", "coordinates": [33.48, -13.95]}, "properties": {"PROVINCE": "Eastern", "DISTRICT": "Chipata", "ConstName": "Chipata Central", "pt_est_pov_headcount": 0.58, "Mean_consump_adult_ZMW": 1080}},
    {"type": "Feature", "geometry": {"type": "Point", "coordinates": [33.58, -14.05]}, "properties": {"PROVINCE": "Eastern", "DISTRICT": "Chipata", "ConstName": "Chipata West", "pt_est_pov_headcount": 0.62, "Mean_consump_adult_ZMW": 980}},
    {"type": "Feature", "geometry": {"type": "Point", "coordinates": [32.65, -13.60]}, "properties": {"PROVINCE": "Eastern", "DISTRICT": "Lundazi", "ConstName": "Lundazi", "pt_est_pov_headcount": 0.70, "Mean_consump_adult_ZMW": 880}},
    {"type": "Feature", "geometry": {"type": "Point", "coordinates": [32.88, -14.35]}, "properties": {"PROVINCE": "Eastern", "DISTRICT": "Katete", "ConstName": "Katete", "pt_est_pov_headcount": 0.65, "Mean_consump_adult_ZMW": 920}},
    {"type": "Feature", "geometry": {"type": "Point", "coordinates": [33.12, -14.80]}, "properties": {"PROVINCE": "Eastern", "DISTRICT": "Petauke", "ConstName": "Petauke", "pt_est_pov_headcount": 0.68, "Mean_consump_adult_ZMW": 895}},
    {"type": "Feature", "geometry": {"type": "Point", "coordinates": [31.68, -10.22]}, "properties": {"PROVINCE": "Northern", "DISTRICT": "Kasama", "ConstName": "Kasama Central", "pt_est_pov_headcount": 0.60, "Mean_consump_adult_ZMW": 1050}},
    {"type": "Feature", "geometry": {"type": "Point", "coordinates": [31.78, -10.15]}, "properties": {"PROVINCE": "Northern", "DISTRICT": "Kasama", "ConstName": "Kasama West", "pt_est_pov_headcount": 0.65, "Mean_consump_adult_ZMW": 960}},
    {"type": "Feature", "geometry": {"type": "Point", "coordinates": [30.45, -8.55]}, "properties": {"PROVINCE": "Northern", "DISTRICT": "Mbala", "ConstName": "Mbala", "pt_est_pov_headcount": 0.72, "Mean_consump_adult_ZMW": 850}},
    {"type": "Feature", "geometry": {"type": "Point", "coordinates": [31.30, -9.70]}, "properties": {"PROVINCE": "Northern", "DISTRICT": "Luwingu", "ConstName": "Luwingu", "pt_est_pov_headcount": 0.75, "Mean_consump_adult_ZMW": 820}},
    {"type": "Feature", "geometry": {"type": "Point", "coordinates": [29.25, -10.45]}, "properties": {"PROVINCE": "Northern", "DISTRICT": "Chilubi", "ConstName": "Chilubi", "pt_est_pov_headcount": 0.78, "Mean_consump_adult_ZMW": 780}},
    {"type": "Feature", "geometry": {"type": "Point", "coordinates": [29.45, -11.20]}, "properties": {"PROVINCE": "Luapula", "DISTRICT": "Samfya", "ConstName": "Samfya", "pt_est_pov_headcount": 0.82, "Mean_consump_adult_ZMW": 750}},
    {"type": "Feature", "geometry": {"type": "Point", "coordinates": [29.95, -10.15]}, "properties": {"PROVINCE": "Luapula", "DISTRICT": "Mansa", "ConstName": "Mansa Central", "pt_est_pov_headcount": 0.72, "Mean_consump_adult_ZMW": 850}},
    {"type": "Feature", "geometry": {"type": "Point", "coordinates": [30.02, -10.08]}, "properties": {"PROVINCE": "Luapula", "DISTRICT": "Mansa", "ConstName": "Mansa East", "pt_est_pov_headcount": 0.78, "Mean_consump_adult_ZMW": 800}},
    {"type": "Feature", "geometry": {"type": "Point", "coordinates": [28.75, -9.20]}, "properties": {"PROVINCE": "Luapula", "DISTRICT": "Nchelenge", "ConstName": "Nchelenge", "pt_est_pov_headcount": 0.85, "Mean_consump_adult_ZMW": 720}},
    {"type": "Feature", "geometry": {"type": "Point", "coordinates": [28.80, -10.55]}, "properties": {"PROVINCE": "Luapula", "DISTRICT": "Kawambwa", "ConstName": "Kawambwa", "pt_est_pov_headcount": 0.82, "Mean_consump_adult_ZMW": 740}},
    {"type": "Feature", "geometry": {"type": "Point", "coordinates": [27.45, -15.95]}, "properties": {"PROVINCE": "Southern", "DISTRICT": "Monze", "ConstName": "Monze", "pt_est_pov_headcount": 0.50, "Mean_consump_adult_ZMW": 1280}},
    {"type": "Feature", "geometry": {"type": "Point", "coordinates": [27.85, -14.82]}, "properties": {"PROVINCE": "Southern", "DISTRICT": "Mazabuka", "ConstName": "Mazabuka", "pt_est_pov_headcount": 0.38, "Mean_consump_adult_ZMW": 1520}},
    {"type": "Feature", "geometry": {"type": "Point", "coordinates": [26.40, -16.85]}, "properties": {"PROVINCE": "Southern", "DISTRICT": "Choma", "ConstName": "Choma Central", "pt_est_pov_headcount": 0.42, "Mean_consump_adult_ZMW": 1420}},
    {"type": "Feature", "geometry": {"type": "Point", "coordinates": [25.88, -17.88]}, "properties": {"PROVINCE": "Southern", "DISTRICT": "Livingstone", "ConstName": "Livingstone Central", "pt_est_pov_headcount": 0.32, "Mean_consump_adult_ZMW": 1720}},
    {"type": "Feature", "geometry": {"type": "Point", "coordinates": [26.00, -15.20]}, "properties": {"PROVINCE": "Southern", "DISTRICT": "Namwala", "ConstName": "Namwala", "pt_est_pov_headcount": 0.55, "Mean_consump_adult_ZMW": 1150}},
    {"type": "Feature", "geometry": {"type": "Point", "coordinates": [28.45, -14.90]}, "properties": {"PROVINCE": "Central", "DISTRICT": "Kabwe", "ConstName": "Kabwe Central", "pt_est_pov_headcount": 0.42, "Mean_consump_adult_ZMW": 1420}},
    {"type": "Feature", "geometry": {"type": "Point", "coordinates": [28.55, -14.98]}, "properties": {"PROVINCE": "Central", "DISTRICT": "Kabwe", "ConstName": "Bwacha", "pt_est_pov_headcount": 0.48, "Mean_consump_adult_ZMW": 1310}},
    {"type": "Feature", "geometry": {"type": "Point", "coordinates": [28.62, -13.50]}, "properties": {"PROVINCE": "Central", "DISTRICT": "Kapiri Mposhi", "ConstName": "Kapiri Mposhi", "pt_est_pov_headcount": 0.50, "Mean_consump_adult_ZMW": 1280}},
    {"type": "Feature", "geometry": {"type": "Point", "coordinates": [29.85, -13.60]}, "properties": {"PROVINCE": "Central", "DISTRICT": "Serenje", "ConstName": "Serenje", "pt_est_pov_headcount": 0.55, "Mean_consump_adult_ZMW": 1150}},
    {"type": "Feature", "geometry": {"type": "Point", "coordinates": [30.25, -14.20]}, "properties": {"PROVINCE": "Central", "DISTRICT": "Mkushi", "ConstName": "Mkushi North", "pt_est_pov_headcount": 0.52, "Mean_consump_adult_ZMW": 1200}},
    {"type": "Feature", "geometry": {"type": "Point", "coordinates": [31.10, -10.95]}, "properties": {"PROVINCE": "Muchinga", "DISTRICT": "Isoka", "ConstName": "Isoka", "pt_est_pov_headcount": 0.68, "Mean_consump_adult_ZMW": 890}},
    {"type": "Feature", "geometry": {"type": "Point", "coordinates": [31.55, -12.55]}, "properties": {"PROVINCE": "Muchinga", "DISTRICT": "Chinsali", "ConstName": "Chinsali", "pt_est_pov_headcount": 0.65, "Mean_consump_adult_ZMW": 950}},
    {"type": "Feature", "geometry": {"type": "Point", "coordinates": [31.25, -11.65]}, "properties": {"PROVINCE": "Muchinga", "DISTRICT": "Mpika", "ConstName": "Mpika Central", "pt_est_pov_headcount": 0.62, "Mean_consump_adult_ZMW": 980}},
    {"type": "Feature", "geometry": {"type": "Point", "coordinates": [31.35, -11.55]}, "properties": {"PROVINCE": "Muchinga", "DISTRICT": "Mpika", "ConstName": "Kanchibiya", "pt_est_pov_headcount": 0.70, "Mean_consump_adult_ZMW": 880}},
    {"type": "Feature", "geometry": {"type": "Point", "coordinates": [32.35, -11.80]}, "properties": {"PROVINCE": "Muchinga", "DISTRICT": "Nakonde", "ConstName": "Nakonde", "pt_est_pov_headcount": 0.60, "Mean_consump_adult_ZMW": 1020}},
    {"type": "Feature", "geometry": {"type": "Point", "coordinates": [22.15, -14.82]}, "properties": {"PROVINCE": "Western", "DISTRICT": "Kalabo", "ConstName": "Kalabo Central", "pt_est_pov_headcount": 0.82, "Mean_consump_adult_ZMW": 740}},
    {"type": "Feature", "geometry": {"type": "Point", "coordinates": [22.28, -14.92]}, "properties": {"PROVINCE": "Western", "DISTRICT": "Kalabo", "ConstName": "Sikongo", "pt_est_pov_headcount": 0.85, "Mean_consump_adult_ZMW": 710}},
    {"type": "Feature", "geometry": {"type": "Point", "coordinates": [23.12, -16.05]}, "properties": {"PROVINCE": "Western", "DISTRICT": "Senanga", "ConstName": "Senanga Central", "pt_est_pov_headcount": 0.80, "Mean_consump_adult_ZMW": 760}},
    {"type": "Feature", "geometry": {"type": "Point", "coordinates": [22.50, -15.20]}, "properties": {"PROVINCE": "Western", "DISTRICT": "Lukulu", "ConstName": "Lukulu East", "pt_est_pov_headcount": 0.78, "Mean_consump_adult_ZMW": 780}},
    {"type": "Feature", "geometry": {"type": "Point", "coordinates": [23.50, -14.10]}, "properties": {"PROVINCE": "Western", "DISTRICT": "Kaoma", "ConstName": "Kaoma Central", "pt_est_pov_headcount": 0.75, "Mean_consump_adult_ZMW": 820}}
  ]
}
